,Popularity,Name,Calfication,Num_reviwes,Webside,Latitude,Longitude,Type_food,Comida,Servicio,Calidad/precio,Ambiente
0,1,La Mansion Marriott Reforma,5.0,1663.0,http://www.facebook.com/mansionmarriottreforma,19.428345,-99.16426,"Mexicana, Parrillada",4.5,4.5,4.5,4.0
1,2,Balta,5.0,1363.0,http://www.sofitel-mexico-city.com/restaurants/balta-restaurant/,19.428432,-99.16592,"Mexicana, Mediterránea, Mariscos, Parrilla",5.0,5.0,5.0,
2,3,KYU MÉXICO,5.0,809.0,http://www.kyumexico.com,19.431955,-99.20089,"Tailandesa, Asiática, Coreana, Fusión",5.0,5.0,4.5,
3,4,Parole Polanco,5.0,3484.0,https://parole.mx/en/italian-restaurant-in-cdmx,19.430412,-99.1994,"Italiana, Contemporánea, Toscana, Del centro italiano",5.0,5.0,4.5,
4,5,Animal,5.0,1591.0,http://costeno.com/animal,19.432081,-99.19929,"Mexicana, Pub, Fusión, Gastropub, Española",5.0,5.0,4.5,
5,6,Mochomos Palmas,5.0,1134.0,http://mochomos.mx,19.429089,-99.216774,Mexicana,4.5,4.5,4.5,
6,7,Ryoshi Masaryk,5.0,1046.0,http://www.ryoshi.mx/,19.431684,-99.18634,"Japonesa, Sushi, Asiática, Saludable, Internacional, Fusión japonesa",5.0,5.0,4.5,
7,8,Porfirio's Coyoacán,5.0,602.0,https://porfirios.com.mx/,19.345526,-99.18072,Mexicana,5.0,5.0,5.0,
8,9,Sonora Prime Santa Fe,5.0,306.0,http://sonoraprime.com.mx/,19.361963,-99.26657,Bar de vinos,5.0,5.0,4.5,
9,10,Zefiro,5.0,987.0,http://www.elclaustro.edu.mx/zefiro/,19.427332,-99.1382,"Mexicana, Contemporánea",5.0,5.0,4.5,4.5
10,11,Auguri Kosher Trattoria,5.0,345.0,http://www.facebook.com/augurikoshertrattoria,19.429688,-99.21117,"Italiana, Mediterránea, Contemporánea, Del norte italiano, Del sur italiano",5.0,5.0,5.0,
11,12,Condimento Restaurant,5.0,989.0,http://www.marriott.com/hotels/hotel-information/restaurant/MEXMC&scid=d42e66eb-35c2-4d9c-9219-ae39f3a2ca9f,19.427828,-99.164024,Internacional,4.5,4.5,4.5,4.0
12,13,Ilios Greek Estiatorio Polanco,5.0,829.0,http://iliosrestaurante.com.mx/cdmx,19.431807,-99.19404,"Bar, Mediterránea, Griega, Pub",5.0,5.0,4.5,
13,14,Cambalache Plaza Oasis,5.0,1274.0,http://www.cambalacherestaurantes.com/#coyoacan,19.344442,-99.17947,"Argentina, Bar, Internacional, Parrilla, Contemporánea, Pub",4.5,4.5,4.5,
14,15,La Rural Argentina,4.5,329.0,http://www.laruralrestaurantes.com/,19.389774,-99.17375,"Argentina, Bar, Internacional, Parrilla, Contemporánea, Pub",4.5,5.0,4.5,4.5
15,16,Quattro Gastronomía Italiana,5.0,880.0,http://www.quattro.com.mx/,19.367119,-99.26036,"Italiana, Mediterránea, Europea, Saludable, Toscana, Romana, De Lacio, Siciliana, Del centro italiano, Del sur italiano",4.5,4.5,4.0,4.5
16,17,Sonora Grill Coapa,5.0,887.0,http://sonoragrill.com.mx,19.294357,-99.12684,"Mexicana, Bar, Saludable",4.5,4.5,4.5,
17,18,Cityzen Rooftop Kitchen,5.0,2132.0,http://www.sofitel-mexico-city.com/restaurants/cityzen-rooftop/,19.428486,-99.166,"Mexicana, Fusión",4.5,5.0,4.5,
18,19,La Distral,5.0,498.0,http://www.fiestamericana.com/hoteles-y-resorts/fiesta-americana-reforma-ciudad-de-mexico/hotel-dining/la-distral,19.433002,-99.15458,"Mexicana, Latina, Internacional",4.5,5.0,4.5,
19,20,Corazón de Maguey,4.5,1351.0,http://www.corazondemaguey.com,19.349573,-99.163574,Mexicana,4.5,4.5,4.0,4.0
20,21,Restaurante Condimento Emporio Reforma,5.0,677.0,http://hotelesemporio.com/hoteles/emporio-ciudad-de-mexico/,19.431667,-99.157,Mexicana,5.0,5.0,5.0,
21,22,Taboo Polanco,5.0,1397.0,http://taboorestaurant.com.mx/en/reservations/cdmx-restaurants,19.431421,-99.193085,"Mariscos, Mediterránea, Internacional, Contemporánea",5.0,5.0,4.5,
22,23,Los Danzantes Coyoacán,4.5,1581.0,http://www.losdanzantescoyoacan.com,19.348955,-99.163605,"Mexicana, Contemporánea",4.5,4.5,4.0,4.0
23,24,Asaderos Grill Plaza Carso,5.0,120.0,http://www.asaderosgrill.com.mx,19.441648,-99.20391,"Mexicana, Internacional, Parrilla",5.0,5.0,5.0,
24,25,Bamboo Asian Cuisine Kosher,5.0,137.0,http://bambooasiancuisine.com/,19.42967,-99.21115,"Japonesa, Internacional, Tailandesa, China, Sushi",5.0,5.0,5.0,
25,26,Sonora Grill Miyana,5.0,1837.0,http://sonoragrill.com.mx/reserva/?r=sg,19.524982,-99.22685,Mexicana,4.5,4.5,4.0,
26,27,Cuerno Masaryk,4.5,1606.0,http://www.cuerno.com.mx,19.431633,-99.1936,Mexicana,5.0,5.0,4.5,
27,28,Les Moustaches,5.0,1145.0,http://www.lesmoustaches.com.mx/,19.42962,-99.16569,"Francesa, Saludable, Bar, Internacional, Pub",5.0,5.0,4.5,4.5
28,29,Karpos Polanco,5.0,101.0,http://karpos.mx/,19.430172,-99.198364,"Italiana, Mediterránea, Griega",5.0,5.0,4.5,
29,30,Colmillo Masaryk,5.0,317.0,http://colmillo.mx,,,"Bar, Parrilla, Pub, Bar de vinos",5.0,5.0,4.5,
30,31,Hotaru Mitikah,5.0,94.0,https://costeno.com/hotaru/,19.359005,-99.16752,Japonesa,5.0,5.0,5.0,
31,32,Hotaru Arcos,5.0,120.0,http://costeno.com/hotaru/,19.3862,-99.25284,Japonesa,5.0,5.0,5.0,
32,33,Sonora Grill Narvarte,5.0,478.0,http://sonoragrill.com.mx/,19.393164,-99.16072,"Mexicana, Churrasquería",4.5,4.5,4.0,
33,34,Taquería y Restaurante Takotl,5.0,409.0,https://www.takotl.com,19.416208,-99.165596,"Mexicana, Internacional, Pub",5.0,5.0,5.0,
34,35,Porfirio's Polanco,4.5,2906.0,http://porfirios.com.mx/,19.431454,-99.18996,"Mexicana, Latina, Contemporánea",4.5,4.5,4.0,4.5
35,36,Mochomos Mitikah,5.0,358.0,https://www.mochomos.mx/index2.php,19.358994,-99.16934,Mexicana,4.5,4.5,4.5,
36,37,Pubbelly Masaryk,4.5,583.0,http://pubbelly.mx/,19.431568,-99.19219,"Sushi, Japonesa",4.5,4.5,4.5,
37,38,Chambao Polanco,5.0,872.0,http://chambaorestaurant.com/es/polanco/restaurante-de-carnes-en-polanco,19.431862,-99.20141,"Churrasquería, Mariscos, Parrilla, Bar, Pub",5.0,5.0,4.5,
38,39,Hotaru Lomas,5.0,162.0,http://www.hotaru.com.mx,19.433489,-99.21198,"Japonesa, Sushi",5.0,5.0,5.0,
39,40,Parrilla Urbana División del Norte,4.5,693.0,http://parrillaurbana.com.mx/,19.393099,-99.16061,"Mexicana, Latina, Bar",4.0,3.5,3.5,4.0
40,41,Sonora Grill Nápoles,4.5,775.0,http://www.sonoragrill.com.mx,19.388437,-99.17583,"Churrasquería, Latina",4.5,4.5,4.0,4.5
41,42,La Vicenta,5.0,801.0,http://lavicenta.com.mx/ubicaciones/,19.4866,-99.152115,"Latina, Parrilla, Mexicana",4.5,4.5,4.5,
42,43,Bajel,5.0,132.0,http://visitingmedia.com/tt8/?ttid=sofitel-mexico-city-ta#/360?group=2&tour=6&c13rl3=0&ha17=1,19.42837,-99.16602,Mexicana,4.5,5.0,4.5,
43,44,Marcello,5.0,121.0,https://marcello.mx/,19.418053,-99.15949,Italiana,5.0,5.0,5.0,
44,45,RULFO PARAJE LATINO,4.5,309.0,http://instagram.com/rulfomx?igshid=ZWQyN2ExYTkwZQ==,19.427168,-99.192696,Mexicana,4.5,4.5,4.0,
45,46,Pali Pali Alameda,5.0,71.0,http://palipali.mx/,19.436308,-99.14626,"Mexicana, Latina, Comida rápida, Española",5.0,5.0,5.0,
46,47,Sonora Grill Reforma,4.5,2691.0,http://sonoragrill.com.mx,19.43527,-99.15057,"Mexicana, Churrasquería, Parrilla",4.0,4.0,4.0,
47,48,CúA Culinary Artisans Restaurant,5.0,199.0,http://www.espanol.marriott.com/hotels/hotel-information/restaurant/mexsf-jw-marriott-hotel-mexico-city-santa-fe/,19.367128,-99.26046,"Mexicana, Internacional",4.5,5.0,4.5,
48,49,Teppan Grill,4.5,308.0,http://instagram.com/teppangrill_mx?igshid=ZWQyN2ExYTkwZQ==,19.42766,-99.19278,"Japonesa, Sushi, Asiática",4.0,4.5,3.5,4.5
49,50,Salute Food & Bar,4.5,1345.0,http://www.grupobgm.com.mx,19.423998,-99.07838,"Mexicana, Bar, Saludable",4.0,4.0,4.0,
50,51,Sonora Grill Mundo E,4.5,305.0,http://sonoragrill.com.mx/reserva/?r=sg,19.524372,-99.22764,"Mexicana, Churrasquería, Gastropub",4.5,4.5,4.0,
51,52,Sonora Prime Centro Historico,5.0,232.0,http://sonoraprime.com.mx/,19.434963,-99.14633,"Mexicana, Internacional, Bar de vinos",4.5,4.5,4.5,
52,53,Dalis pizzeria italiana,5.0,364.0,http://www.facebook.com/DALIS-Pizzeria-Italiana-175947072830562/,19.433023,-99.12629,"Italiana, Pizzería, Europea",5.0,5.0,5.0,
53,54,Caprice Polanco,5.0,521.0,http://capricerestaurant.com/es/restaurante-en-polanco,19.431818,-99.19404,"Francesa, Mariscos, Mediterránea",4.5,5.0,4.5,
54,55,RosaNegra Polanco,4.5,3353.0,http://rosanegra.com.mx/en/branch-offices/cdmx,19.43129,-99.19334,"Mariscos, Latina, Contemporánea",4.5,4.5,4.0,
55,56,Diego Y Yo,5.0,170.0,,19.431574,-99.18674,"Mexicana, Fusión, Churrasquería, Contemporánea, Comedores",5.0,5.0,5.0,
56,57,La No. 20 Cantina,4.5,390.0,http://www.cantina20.com,19.426098,-99.16725,"Mexicana, Latina, Bar, Contemporánea",4.5,4.5,4.0,4.5
57,58,Parilla Urbana Félix Cuevas,5.0,201.0,http://parrillaurbana.com.mx/,19.37083,-99.16627,Mexicana,5.0,5.0,5.0,
58,59,Cambalache Escenaria,4.5,220.0,http://www.cambalacherestaurantes.com,19.33526,-99.19907,"Argentina, Bar, Internacional, Parrilla, Contemporánea, Pub",4.0,4.5,3.5,
59,60,Almara,4.5,740.0,http://www.almara.rest,19.424809,-99.16803,"Mediterránea, Contemporánea",4.5,4.5,4.5,
60,61,Sonora Grill Coyoacán,4.5,1739.0,http://www.sonoragrill.com.mx/,19.3601,-99.171265,"Mexicana, Bar",4.5,4.5,4.0,4.0
61,62,Sonora Grill Prime,4.5,1368.0,http://sonoraprime.com.mx/,19.368353,-99.180466,Bar de vinos,4.5,4.0,4.0,4.5
62,63,Zesta Punta,5.0,324.0,https://www.zestapunta.com/,19.436838,-99.15386,"Mexicana, Española, Saludable, Mediterránea",4.5,4.5,4.5,
63,64,Sonora Grill Amores,4.5,286.0,http://sonoragrill.com.mx/,19.378132,-99.16779,"Mexicana, Parrilla, Latina, Bar",4.5,4.5,4.0,
64,65,Cambalache Polanco,4.5,578.0,http://www.cambalacherestaurantes.com,19.431767,-99.19598,"Churrasquería, Argentina, Internacional",4.0,4.0,4.0,4.0
65,66,La Vicenta Tezontle,5.0,307.0,http://lavicenta.com.mx/,19.383396,-99.0803,"Churrasquería, Latina, Parrilla",4.5,4.5,4.0,
66,67,Oxa Cocina Única,5.0,130.0,http://oxa.com.mx/reservaciones/,19.344925,-99.19261,"Mexicana, Bar, Mariscos, Parrilla, Saludable",5.0,4.5,4.5,
67,68,El Balcón del Zocalo,4.5,2857.0,http://www.balcondelzocalo.com,19.434,-99.13444,"Internacional, Fusión, Mexicana, Latina",4.5,4.5,4.0,4.0
68,69,Asaderos Grill Polanco,4.5,409.0,http://www.asaderosgrill.com.mx,19.43267,-99.1833,"Churrasquería, Parrilla, Mexicana, Bar",4.0,4.5,4.0,
69,70,La Bikina México,5.0,134.0,http://www.labikinamexico.mx/,19.43127,-99.18803,"Mexicana, Española, Contemporánea",4.5,4.5,4.5,
70,71,Nonna,4.0,339.0,http://nonna.mx/,19.410814,-99.168015,Italiana,4.5,4.0,4.0,3.5
71,72,SCOLA CESSA,5.0,160.0,http://www.cessa.edu.mx/scola,19.334831,-99.20609,Internacional,4.5,5.0,4.5,
72,73,Pali Pali,5.0,79.0,https://palipali.mx/,19.38647,-99.17293,"Comida rápida, Saludable, Sopas",5.0,5.0,5.0,
73,74,Cantina 20 | Pedregal,4.5,115.0,http://pedregal.lano20.com.mx/,19.313652,-99.219345,"Mexicana, Bar, Bar de vinos, Latina, Española",4.5,5.0,4.5,
74,75,Testal,4.5,451.0,http://testal.mx,19.433325,-99.14281,"Mexicana, Sopas",4.5,4.5,4.5,
75,76,Restaurante Eloise,4.5,1073.0,https://www.facebook.com/RestauranteEloise/,19.351795,-99.19049,"Francesa, Europea, Contemporánea",5.0,4.5,4.5,4.5
76,77,El Cardenal Alameda,4.5,1972.0,http://www.restauranteelcardenal.com,19.435007,-99.14628,Mexicana,4.5,4.5,4.5,4.0
77,78,El Cardenal San Ángel,4.5,1309.0,http://www.restauranteelcardenal.com/el-cardenal-san-angel.html,19.34707,-99.188805,Mexicana,4.5,4.5,4.5,4.5
78,79,Porfirio's Coapa,5.0,974.0,http://porfirios.com.mx/,19.294926,-99.12639,"Mexicana, Parrilla, Contemporánea",5.0,5.0,5.0,
79,80,Burger House Atelier,5.0,75.0,http://www.fb.com/BurgerHouseAtelier,19.429358,-99.211136,"Internacional, Israelí",5.0,5.0,5.0,
80,81,Restaurante El Cardenal,4.5,6065.0,http://restauranteelcardenal.com/,19.433794,-99.13515,"Mexicana, Latina",4.5,4.5,4.5,4.0
81,82,Carmela Y Sal,4.5,238.0,http://www.carmelaysal.mx,19.425203,-99.20354,"Mexicana, Latina",4.5,4.5,4.5,
82,83,Sonora Prime – Artz Pedregal,4.5,185.0,http://sonoraprime.com.mx/,19.313154,-99.21948,"Mexicana, Bar de vinos",4.0,4.5,4.0,
83,84,The Capital Grille,4.5,593.0,http://www.thecapitalgrille.com.mx/,19.428707,-99.16328,Estadounidense,4.5,4.5,4.0,4.5
84,85,Tostadas de Coyoacan,4.5,305.0,http://coyoacan.olx.com.mx/tostadas-coyoacan-iid-24466760,19.352694,-99.16151,"Mexicana, Latina, Mariscos, Comida rápida",4.5,4.5,4.5,4.0
85,86,Limosneros,4.5,1210.0,http://limosneros.com.mx/,19.436218,-99.13795,"Mexicana, Latina",4.5,4.5,4.5,4.5
86,87,Yoshimi,4.5,385.0,http://mexicocity.regency.hyatt.com,19.426996,-99.192924,"Japonesa, Sushi, Asiática",4.5,4.5,4.0,4.0
87,88,Nudo Negro,4.5,453.0,http://www.nudonegro.com,19.41571,-99.16063,"Mexicana, Contemporánea, Fusión, Comedores",4.5,4.5,4.5,
88,89,Agua y Sal Cebichería,4.5,1246.0,http://www.aguaysal.com.mx,19.428038,-99.19245,"Mexicana, Latina, Mariscos, Saludable",4.5,4.5,4.5,4.5
89,90,Sonora Grill Prime Masaryk,4.5,609.0,http://sonoraprime.com.mx/,19.43182,-99.19652,"Mexicana, Internacional, Bar de vinos",4.5,4.0,4.0,5.0
90,91,El Pescadito,4.5,329.0,https://www.facebook.com/ElPescaditoCondesaDf,19.41436,-99.17367,"Mexicana, Latina, Mariscos, Comida rápida",4.5,4.5,4.5,
91,92,MeroToro,4.5,534.0,http://merotoro.mx,19.409513,-99.1699,"Mexicana, Latina, Mariscos",4.5,4.5,4.0,4.0
92,93,Dulce Patria en Las Alcobas,4.5,1384.0,http://marthaortiz.mx/en/restaurants/dulce-patria,19.43144,-99.19758,"Mexicana, Latina",4.5,4.5,4.0,4.5
93,94,La Capital,4.5,640.0,http://lacapitalrestaurante.com,19.409466,-99.17285,"Mexicana, Latina",4.5,4.5,4.5,4.5
94,95,Los Panchos Anzures,4.5,564.0,http://lospanchos.mx,19.425352,-99.177185,"Mexicana, Latina",4.5,4.5,4.0,4.0
95,96,Los Canarios,5.0,58.0,http://loscanarios.com.mx/,19.405933,-99.11097,Internacional,5.0,4.5,5.0,
96,97,Casino Español,4.5,617.0,https://www.cassatt.mx/restaurante/casino-espa%C3%B1ol,19.432844,-99.13662,Española,4.5,4.5,4.5,4.5
97,98,El Cardenal Lomas,4.5,1370.0,http://restauranteelcardenal.com/lomas/,19.430893,-99.20975,"Mexicana, Latina",4.5,4.5,4.5,4.5
98,99,Cambalache Vallejo,5.0,105.0,http://www.cambalacherestaurantes.com,19.493362,-99.15983,"Argentina, Bar, Internacional, Parrilla, Contemporánea, Pub",5.0,4.5,4.0,
99,100,Guzina Oaxaca,4.5,404.0,http://www.guzinaoaxaca.com/,19.432257,-99.20363,"Mexicana, Latina, Contemporánea, Saludable",4.5,4.5,4.5,4.5
100,101,Contramar,4.5,1602.0,http://www.contramar.com.mx,19.419815,-99.167076,"Mexicana, Mariscos",4.5,4.5,4.0,4.5
101,102,Suntory Del Valle,4.5,727.0,http://www.suntory.com.mx/,19.39278,-99.171814,"Japonesa, Mariscos, Asiática, Sushi, Saludable",4.5,4.5,4.0,4.5
102,103,Puerto Madero Polanco,4.5,1136.0,http://www.puertomaderorestaurantes.com,19.431408,-99.18574,"Mariscos, Argentina, Internacional, Parrilla, Contemporánea",4.5,4.5,3.5,4.0
103,104,Danubio,4.5,743.0,http://www.danubio.com,19.431162,-99.14102,"Mariscos, Española, Sopas",4.5,4.5,4.5,4.0
104,105,Los Girasoles,4.0,631.0,https://losgirasolesmexico.com/,19.436018,-99.13889,,4.0,4.0,4.0,4.0
105,106,La Casa de Tono,4.5,1458.0,http://www.lacasadetono.com.mx/,19.42492,-99.165215,"Mexicana, Latina",4.5,4.5,4.5,4.0
106,107,Quebracho Lerma,4.5,767.0,http://quebracho.com.mx/,19.42805,-99.16982,"Parrillada, Churrasquería, Argentina",4.5,4.0,4.0,4.0
107,108,Casa Portuguesa,4.5,497.0,http://www.casaportuguesa.rest,19.42986,-99.197296,"Mariscos, Mediterránea, Europea, Portuguesa",4.5,4.5,4.0,4.5
108,109,La casa de Tono Zona Rosa,4.5,1162.0,http://www.lacasadetono.com.mx/movil/zonarosa.htm,19.424913,-99.16523,"Mexicana, Latina",4.5,4.5,4.5,4.0
109,110,Nicos Mexico,4.5,644.0,http://www.nicosmexico.mx,19.464958,-99.17763,"Mexicana, Latina",4.5,4.5,4.5,4.0
110,111,Gotan Restaurante Argentino,4.5,1116.0,http://www.gotan.com.mx/,19.436184,-99.15199,"Parrilla, Churrasquería, Latina, Argentina",4.5,4.5,4.5,4.5
111,112,Anatol en Las Alcobas,4.5,318.0,http://www.anatolkitchen.com,19.431673,-99.19776,Internacional,4.5,4.5,4.0,4.5
112,113,Black Legend Mexico,5.0,48.0,https://www.blacklegend.com.mx/,19.39652,-99.17146,"Mexicana, Bar, Internacional, Fusión",5.0,5.0,5.0,
113,114,Lardo,4.5,628.0,http://www.lardo.mx,19.417982,-99.175156,Mediterránea,4.5,4.0,4.0,
114,115,Alfredo Di Roma,4.5,536.0,http://www.alfredodiroma.rest/,19.427792,-99.19346,"Italiana, Europea, Siciliana, Del sur italiano",4.5,4.5,4.0,4.0
115,116,La Casa del Pastor Masaryk,4.0,377.0,http://www.lacasadelpastor.com.mx/,19.431879,-99.19646,Mexicana,4.0,4.0,4.0,3.5
116,117,Au Pied de Cochon,4.5,1056.0,http://www.aupieddecochon.rest/,19.426945,-99.193565,"Francesa, Mariscos, Europea, Bar de vinos",4.5,4.5,4.0,4.5
117,118,Sonora Grill Santa Fe,5.0,70.0,http://sonoragrill.com.mx/,19.368134,-99.263794,"Mexicana, Parrilla",,,,
118,119,Restaurante Antiguo San Angel Inn,4.5,2548.0,http://www.sanangelinn.com/,19.349447,-99.19785,"Mexicana, Latina",4.5,4.5,4.0,4.5
119,120,Asador Libanés,4.5,290.0,http://www.asadorlibanes.com,19.388678,-99.17502,"Libanesa, Del Medio Oriente, Bar, Parrillada, Fusión",5.0,4.5,4.5,4.5
120,121,Cluny,4.5,400.0,http://www.cluny.com.mx/,19.346497,-99.189445,"Francesa, Europea",4.5,4.0,4.0,4.5
121,122,Antolina,4.5,115.0,http://www.antolina.mx,19.407074,-99.17312,Mexicana,4.5,4.5,4.5,
122,123,Hacienda de Los Morales,4.5,1125.0,http://www.haciendadelosmorales.com,19.434366,-99.20939,"Mexicana, Latina, Internacional",4.0,4.5,4.0,4.5
123,124,Sonora Grill Prime Roma Condesa,4.5,377.0,http://sonoraprime.com.mx/,19.419804,-99.16762,"Mexicana, Internacional, Bar de vinos",4.5,4.5,4.0,4.5
124,125,Lucerna Comedor,4.5,201.0,http://www.cmxcafe.com,19.429956,-99.15575,"Mexicana, Bar, Mariscos, Comida rápida",4.5,4.0,4.5,
125,126,Mumedi Cafe & Shop,4.5,280.0,http://www.mumedi.mx/User,19.433275,-99.13463,"Mexicana, Café",4.5,4.0,4.0,
126,127,Saks SAN ÁNGEL,4.5,461.0,http://www.saks.com.mx/sanangel,19.34485,-99.19244,"Mexicana, Internacional, Contemporánea, Fusión",4.5,4.0,4.0,4.5
127,128,Procer Wine and Beer,5.0,55.0,http://procertogo.com,19.436876,-99.13975,"Cervecería, Bar, Pub, Restaurantes cerveceros",,,,
128,129,Saks Polanco,4.0,589.0,http://www.saks.com.mx/polanco,19.429508,-99.18969,"Mexicana, Internacional, Contemporánea, Fusión",4.0,4.0,4.0,4.5
129,130,La Casa de las Sirenas,4.0,617.0,http://lacasadelassirenas.rest,19.435188,-99.132195,"Mexicana, Latina",4.0,4.5,4.0,4.5
130,131,Gardela,4.5,189.0,http://www.gardelarestaurante.mx/,19.419107,-99.156105,"Churrasquería, Latina, Argentina, Bar, Pub, Bar de vinos",4.5,4.0,4.0,
131,132,Blanco Colima,4.5,397.0,https://www.facebook.com/blancocolima/,19.41981,-99.15999,"Mexicana, Internacional, Contemporánea",4.5,4.5,4.0,
132,133,Dolce Amore,4.5,140.0,http://www.restauranteitalianodolceamore.com.mx/menu2.html,19.287539,-99.16687,"Pizzería, Italiana, Mediterránea",4.5,4.5,4.5,4.0
133,134,China Shing,4.5,119.0,http://www.chinashing.com/,19.347748,-99.23264,"China, Asiática",4.5,4.5,4.5,
134,135,Café Nin,4.5,202.0,http://Www.cafenin.com.mx,19.425413,-99.16064,Café,4.5,4.5,4.5,
135,136,El Mayor Restaurante,4.0,715.0,http://www.elmayor.com.mx/,19.43575,-99.13154,"Mexicana, Latina, Bar, Contemporánea, Pub, Saludable, Bar de vinos, Sudamericana, Centroamericana",4.0,4.0,4.0,4.5
136,137,Quintonil,4.5,1180.0,http://www.quintonil.com/,19.43088,-99.19172,Mexicana,4.5,4.5,4.0,4.0
137,138,El Califa,4.0,689.0,http://elcalifa.com.mx/,19.406378,-99.17259,"Mexicana, Latina",4.5,4.5,4.0,4.0
138,139,La Pitahaya Vegana,4.5,113.0,http://lapitahayavegana.mx,19.415113,-99.15874,"Mexicana, Latina, Saludable",4.5,5.0,4.5,
139,140,Amaya,4.5,239.0,http://www.amayamexico.com,19.430983,-99.15638,"Mexicana, Bar de vinos",4.5,4.5,4.5,
140,141,Garum,4.5,155.0,http://garumrestaurante.com/,19.432425,-99.203835,"Mediterránea, Española, Bar, Internacional, Pub, Helados con fruta",5.0,5.0,4.5,
141,142,La Santa Gula,4.5,356.0,http://www.facebook.com/lasantagula/timeline,19.354172,-99.155266,Mediterránea,4.5,4.5,4.0,4.5
142,143,El Bajio Refoma,4.0,338.0,http://carnitaselbajio.com.mx/enSucursales.html,19.428482,-99.16168,"Mexicana, Latina",4.5,4.5,4.0,4.0
143,144,Solo Café,5.0,49.0,http://solocafecdmx.com,19.402843,-99.27136,Internacional,,,,
144,145,Asaderos Grill Reforma,4.5,178.0,http://www.asaderosgrill.com.mx,19.428444,-99.16918,"Parrilla, Mexicana, Latina",4.0,4.0,4.0,
145,146,Casa Elefante,4.5,147.0,http://retaurante-casa-elefante.webnode.es/,19.43679,-99.18486,"De la India, Internacional, Contemporánea, Asiática",4.5,4.5,4.5,
146,147,Villa Rica Polanco,4.5,216.0,http://www.villa-rica.com/,19.430319,-99.19618,"Mexicana, Mariscos",4.5,4.5,4.0,
147,148,Amatista Tostadas,5.0,97.0,http://tostadasamatista.com.mx/,19.35124,-99.163795,Mexicana,5.0,4.5,5.0,
148,149,Café La Pagoda,4.5,247.0,http://cafelapagoda.com.mx,19.434761,-99.139534,"Mexicana, Fuente de soda, Española",4.5,4.5,4.5,4.0
149,150,Chapulin,4.0,432.0,http://www.chapulin.rest/,19.426981,-99.19357,Mexicana,4.5,4.5,4.0,4.0
150,151,Rincon Argentino,4.0,466.0,https://www.rinconargentino.mx/,19.431623,-99.18891,"Churrasquería, Latina, Argentina",4.5,4.5,4.0,4.0
151,152,Alverre Café & Bistró,4.5,210.0,http://mesalibre.com.mx/alverre,19.351797,-99.1591,"Mexicana, Internacional, Fuente de soda",4.5,4.0,4.0,4.0
152,153,China Shing,4.5,149.0,http://www.chinashing.com/,19.432343,-99.1834,"De Asia central, China",4.0,4.5,3.5,
153,154,Entremar,4.5,241.0,http://entremar.com,19.433123,-99.18807,"Mexicana, Latina, Mariscos",4.5,4.5,4.0,3.5
154,155,Azul Condesa,4.0,943.0,http://azul.rest/,19.412897,-99.17171,Mexicana,4.5,4.0,4.0,4.5
155,156,Villa Maria,4.0,1060.0,http://www.villamaria.com.mx,19.435646,-99.19249,"Mexicana, Latina",4.0,4.0,4.0,4.5
156,157,Villa Rica Vallejo,5.0,92.0,http://www.villa-rica.com,19.48718,-99.1514,"Mariscos, Mexicana",5.0,5.0,4.5,
157,158,Fogo de Chão Brazilian Steakhouse,4.0,470.0,http://fogodechao.com.mx/,19.431158,-99.195694,"Churrasquería, Sudamericana, Brasilera, Latina, Parrillada",4.5,4.0,4.0,
158,159,Mog Bistro,4.5,435.0,http://www.facebook.com/Mogbistro/,19.41632,-99.15521,"Japonesa, Sushi, Asiática",4.5,3.5,4.0,
159,160,Azul Historico,4.0,2403.0,http://www.azul.rest/,19.432838,-99.13624,"Mexicana, Latina",4.5,4.0,4.0,4.5
160,161,Sudestada DF,5.0,72.0,http://www.sudestada.com.mx/,19.347652,-99.30432,"Argentina, Parrilla",5.0,5.0,5.0,
161,162,Loretta Chic Bistrot,4.5,166.0,http://www.loretta.rest/?fbclid=IwAR2VgV3TAwmfPtr3_h5mUPzXp5zJY1ksMVBHKzD2q8hjlmEOMwfcCYEOBl0,19.355618,-99.18986,Mediterránea,4.5,5.0,4.0,
162,163,Cafe de Tacuba,4.0,4456.0,http://www.cafedetacuba.info,19.435696,-99.13759,"Mexicana, Latina",4.0,4.0,4.0,4.5
163,164,El Bajío,4.0,792.0,http://www.restauranteelbajio.com.mx,19.42733,-99.1964,Mexicana,4.0,4.0,4.0,4.0
164,165,Madre Café,4.0,298.0,http://madre-cafe.com/,19.417171,-99.15961,"Internacional, Saludable",4.5,4.5,4.0,
165,166,Restaurante Taro,4.5,135.0,http://www.restaurantetaro.com/,19.342909,-99.181625,"Japonesa, Sushi, Asiática",4.5,4.5,4.5,4.0
166,167,Terraza,4.0,698.0,http://www.restauranteterrazaciudaddemexico.com.mx/,19.432232,-99.1344,"Mexicana, Latina",4.0,4.0,4.0,4.5
167,168,Aitana,4.5,191.0,http://www.aitanarestaurante.com,19.42501,-99.20349,"Mariscos, Fusión",4.5,4.5,4.0,
168,169,Taqueria El Caifan,4.0,412.0,http://caifan.com.mx,19.435202,-99.14714,"Mexicana, Latina, Comida rápida",4.0,4.0,4.0,
169,170,Milk Pizzeria,5.0,46.0,https://www.facebook.com/Milk-Pizzeria-CDMX-100307724882997/,19.420101,-99.15958,Pizzería,,,,
170,171,Restaurante Mercaderes,4.5,382.0,http://www.restaurantemercaderes.com,19.433987,-99.13479,"Mexicana, Contemporánea",4.5,4.5,4.0,4.5
171,172,Doña Vero,4.5,59.0,http://www.donavero.mx,19.41103,-99.1646,"Cervecería, Pub, Saludable, Comida de calle, Mexicana, Sopas",5.0,4.5,4.5,
172,173,San Giorgio Pizzeria,5.0,74.0,http://www.order.store/store/san-giorgio-pizzeria-roma-sur/bAco6G9kR1uEd5TmAmaYRg,19.404167,-99.16658,"Italiana, Pizzería, Siciliana, Del sur italiano",5.0,5.0,5.0,
173,174,CABANNA,4.5,227.0,http://cabanna.com.mx,19.431234,-99.186935,"Mexicana, Latina, Mariscos, Internacional",4.5,4.5,4.5,
174,175,Monte Cristo,4.5,172.0,http://www.rmontecristo.com/,19.492064,-99.12086,"Mexicana, Latina",4.5,4.5,4.5,4.5
175,176,Carajillo Masaryk,4.0,336.0,https://carajillomx.com/,19.431175,-99.18213,"Mexicana, Contemporánea, Fusión",4.0,4.0,3.5,4.5
176,177,Pujol,4.5,2518.0,http://www.pujol.com.mx/,19.433455,-99.185646,"Mexicana, Latina, Fusión",4.5,4.5,4.0,4.0
177,178,Lur,4.5,144.0,http://www.restaurantelur.mx,19.431301,-99.18479,"Mediterránea, Española",5.0,4.5,4.5,
178,179,Máximo Bistrot,4.0,882.0,https://www.maximobistrot.com.mx/,19.310871,-99.25672,Internacional,4.5,4.0,4.0,4.0
179,180,Quebracho Insurgentes Sur,4.5,247.0,http://quebracho.com.mx,19.362303,-99.18248,"Sudamericana, Churrasquería, Parrilla, Argentina",4.0,4.5,4.0,
180,181,Don Toribio,4.5,153.0,http://www.facebook.com/Restaurante-Don-Toribio-588243947865124,19.432816,-99.13841,"Mexicana, Latina, Sopas, Parrilla",4.5,4.5,4.5,4.5
181,182,Sepia Cucina Italiana,4.5,123.0,http://www.cocinasepia.mx,19.419813,-99.17124,,4.5,4.5,4.0,
182,183,Emilio,4.5,230.0,http://www.emiliorest.com/,19.429914,-99.1966,"Mediterránea, Europea, Española",4.5,4.5,4.0,4.0
183,184,Macelleria Roma,4.0,306.0,http://www.macelleria.com.mx/,19.417267,-99.15958,"Italiana, Pizzería, Mediterránea",4.5,4.0,4.5,4.5
184,185,Rosetta,4.0,960.0,https://www.facebook.com/pages/ROSETTA/312027142012,19.419859,-99.15989,,4.5,4.0,4.0,4.5
185,186,Lorea,4.5,142.0,http://www.lorea.mx,19.420206,-99.17004,"Mexicana, Internacional",4.5,5.0,4.0,
186,187,Diana Restaurant,4.5,337.0,http://www.marriott.com/en-us/hotels/mexxr-the-st-regis-mexico-city/dining/,19.425043,-99.17202,"Internacional, Contemporánea, Saludable",4.5,4.5,4.0,4.5
187,188,Izakaya Kura,4.5,310.0,https://www.facebook.com/kuraizakaya/,19.417582,-99.169876,"Japonesa, Mariscos",4.5,4.5,4.0,
188,189,El Puntal del Norte,4.5,140.0,http://www.elpuntaldelnorte.com/,19.434069,-99.212425,"Europea, Española, Mediterránea",4.5,4.5,4.0,
189,190,La Barra de Fran,4.5,280.0,http://www.labarradefran.com/,19.430632,-99.200264,"Mediterránea, Española",4.5,4.5,4.0,
190,191,Soul Condesa,4.5,64.0,https://www.facebook.com/soulcondesa/,19.41127,-99.17871,Mexicana,,,,
191,192,Dante Brasa Y Fuego,4.5,157.0,http://dantebrasayfuego.com.mx,19.430422,-99.19999,"Churrasquería, Argentina, Internacional",4.5,5.0,4.5,
192,193,OMETUSCO,5.0,49.0,https://drive.google.com/file/d/1aTM0LrPZvBPGJPPrax5JpjJgNRUK9pg6/view?usp=drivesdk,19.40916,-99.17277,"Mexicana, Mariscos, Contemporánea, Fusión",5.0,4.5,5.0,
193,194,La Opera Bar,4.0,692.0,http://www.barlaopera.com/,19.434628,-99.13938,"Mexicana, Bar",4.0,4.0,3.5,4.5
194,195,Sanborns de los Azulejos,4.0,3788.0,http://www.sanborns.com.mx/sanborns/azulejos.asp,19.434275,-99.14031,"Mexicana, Internacional",3.5,4.0,3.5,4.0
195,196,Cafe El Popular,4.0,628.0,http://www.cafeelpopular.com.mx/,19.434126,-99.13545,"Mexicana, Latina, Café",4.0,4.0,4.0,3.5
196,197,Bakéa,4.5,223.0,http://www.bakea.com.mx,19.416056,-99.22613,"Café, Francesa, Europea",4.5,4.5,4.0,4.0
197,198,Morimoto,4.5,313.0,http://www.morimotomexicocity.com,19.42807,-99.1788,"Japonesa, Sushi, Asiática",4.5,4.5,4.0,4.0
198,199,Catamundi,4.0,312.0,http://catamundi.com/,19.43101,-99.19583,"Europea, Bar de vinos",4.5,4.5,4.0,5.0
199,200,Casa D'Amico,4.5,145.0,http://www.damico.com.mx,19.435358,-99.18791,"Italiana, Mediterránea",4.0,4.0,4.0,4.0
200,201,La Posta,4.0,287.0,http://www.restaurantelaposta.com.mx,19.344934,-99.15788,"Italiana, Pizzería, Mediterránea, Europea",4.5,4.5,4.0,4.0
201,202,Revolución 67,5.0,42.0,http://www.revolucionseissiete.com,19.405493,-99.1848,"Italiana, Internacional, Española, Bar de vinos",,,,
202,203,Entre Fuegos Santa Fe,4.0,230.0,http://www.entrefuegos.com,19.35815,-99.276665,"Churrasquería, Parrilla",4.0,4.5,3.5,
203,204,Pasillo de Humo,4.0,230.0,http://www.facebook.com/pasillodehumo,19.411066,-99.17284,"Mexicana, Latina",4.5,4.0,4.0,
204,205,Maison Belen,4.5,286.0,http://www.instagram.com/maisonbelen/,19.429354,-99.192955,"Francesa, Café, Europea",4.5,4.0,4.0,4.0
205,206,Cantina La 20,4.0,494.0,http://cantina20.com/,19.427658,-99.1958,"Bar, Mexicana, Latina",4.0,4.0,3.5,4.0
206,207,Makoto,4.5,150.0,http://www.makoto.com.mx,19.427073,-99.19723,"Japonesa, Sushi, Asiática",4.5,4.5,4.0,
207,208,Cantina 20 | Santa Fé,4.0,235.0,,19.360662,-99.275665,"Mexicana, Latina, Bar, Pub",4.0,4.0,3.5,
208,209,Taqueria Los Cocuyos,4.5,228.0,http://www.facebook.com/pages/category/Grocery-Store/Taqueria-Los-cocuyos-1543322369260267/,19.430508,-99.13881,"Mexicana, Latina, Comida rápida",4.5,4.0,4.5,
209,210,Temporal,4.5,156.0,http://www.temporalrestaurante.com/,19.410381,-99.17296,,4.5,4.5,4.5,4.5
210,211,Bellini Restaurante Giratorio,4.0,1664.0,http://www.bellini.com.mx/,19.394583,-99.17403,"Italiana, Mexicana, Latina, Mariscos",3.5,4.0,3.5,4.0
211,212,Galanga Thai Kitchen,4.0,347.0,http://adobe.ly/3EKh58N,19.415989,-99.163574,"Asiática, Tailandesa",4.5,4.0,4.0,
212,213,Pan Comido,4.5,171.0,http://www.elpancomido.com,19.429646,-99.17809,"Mexicana, Cervecería, Internacional, Pub, Saludable",4.5,4.0,4.0,4.0
213,214,Gotan Restaurante,4.5,191.0,http://www.gotan.com.mx,19.434746,-99.145775,"Churrasquería, Parrilla, Argentina, Bar, Bar de vinos",4.5,4.5,4.0,
214,215,Gruta Ehden - Florida,4.5,103.0,http://www.grutaehden.com.mx,19.362509,-99.17629,"Libanesa, Del Medio Oriente, Árabe",4.5,4.5,4.5,
215,216,Restaurante Catedral,4.5,63.0,http://www.hotelcatedral.com/index.html,19.43587,-99.1331,"Mexicana, Bar, Café, Parrilla",5.0,4.5,5.0,
216,217,Salon Corona,4.0,511.0,http://www.saloncorona.com.mx/,19.43359,-99.13829,"Mexicana, Comida rápida",4.0,4.0,4.0,4.0
217,218,Kolobok Santa Maria,4.5,241.0,http://www.kolobok.com.mx,19.448698,-99.1562,Rusa,4.5,4.5,4.5,4.0
218,219,Butcher & Sons,4.0,483.0,http://www.butcherandsons.com/,19.430414,-99.197205,"Estadounidense, Bar",4.0,4.0,3.5,4.0
219,220,La Única,4.0,475.0,http://launica.mx,19.43109,-99.1977,"Mexicana, Latina, Bar",4.0,4.0,4.0,5.0
220,221,Fonda Fina,4.0,256.0,http://www.fondafina.com.mx/,19.418211,-99.166145,"Mexicana, Latina",4.5,4.0,4.0,
221,222,La Fonda del Recuerdo,4.5,224.0,http://www.lafondadelrecuerdo.com.mx/,19.43515,-99.17382,"Mexicana, Bar, Mariscos, Parrilla",4.5,4.5,4.0,4.5
222,223,Cambalache Insurgentes,4.0,354.0,http://www.cambalacherestaurantes.com/en/,19.3711,-99.17965,"Argentina, Bar, Internacional, Parrilla, Contemporánea, Pub",4.5,4.5,3.5,4.0
223,224,El Hidalguense,4.5,200.0,http://www.facebook.com/pages/El-Hidalguense/205823096587071,19.409798,-99.16522,"Mexicana, Latina, Parrillada",4.5,4.5,4.0,
224,225,Lalo!,4.0,370.0,http://www.eat-lalo.com,19.415344,-99.1623,"Mexicana, Latina, Española",4.5,4.0,3.5,
225,226,La Hosteria de Santo Domingo,4.0,597.0,,19.43793,-99.13507,"Mexicana, Latina",4.0,4.0,4.0,4.0
226,227,Fifty Mils - Four Seasons Mexico,4.5,138.0,http://www.fiftymils.com/index.html,19.422878,-99.17421,"Mexicana, Bar",4.5,5.0,4.5,
227,228,La Vie en Rose,4.5,243.0,http://www.facebook.com/lavieenrosecdmx/,19.416838,-99.16813,"Francesa, Europea",4.5,4.5,4.5,4.5
228,229,Al Andalus,4.5,227.0,http://www.facebook.com/alandalusmexico/,19.42787,-99.129196,"Libanesa, Del Medio Oriente, Árabe",4.5,4.5,4.0,4.0
229,230,Quebracho,4.5,173.0,http://www.quebracho.com.mx,19.422207,-99.173454,"Churrasquería, Latina, Argentina",4.5,4.5,4.0,4.0
230,231,Cleo Condesa,5.0,37.0,https://cleocondesa.com,19.407925,-99.16851,"Mediterránea, Del Medio Oriente",5.0,4.5,4.5,
231,232,The Palm Restaurant - Polanco,4.0,294.0,http://www.thepalm.com.mx,19.427225,-99.19377,"Estadounidense, Churrasquería",4.0,4.5,3.5,4.0
232,233,El Corazón Del Mar,4.5,69.0,http://www.elcorazondelmar.mx,19.389479,-99.1754,"Mariscos, Mexicana, Mediterránea, Contemporánea",4.5,4.5,4.5,
233,234,Debarbas Bebedero Gourmet,4.5,118.0,http://www.debarbas.com/,19.387854,-99.17744,"Mexicana, Bar, Pizzería",4.5,4.5,4.5,
234,235,Centro Castellano,4.0,415.0,http://grupocastellano.com.mx/centro/,19.430954,-99.14004,"Mediterránea, Mariscos, Española",4.5,4.5,4.0,4.0
235,236,La Cabrera Mexico,4.0,181.0,http://www.facebook.com/LaCabreraMexico/?rc=p,19.438997,-99.20271,"Churrasquería, Argentina",4.0,4.0,4.0,
236,237,La Buena Barra CDMX,4.0,660.0,http://www.labuenabarra.com.mx,19.431696,-99.19366,"Mexicana, Latina",4.0,4.0,3.5,4.5
237,238,Nagaoka,4.5,255.0,http://www.nagaoka.com.mx/menu.html,19.391684,-99.17476,"Japonesa, Sushi",4.5,4.0,4.5,4.0
238,239,Restaurante Villa Maria,4.5,139.0,http://www.villamaria.com.mx,19.364967,-99.262314,"Mexicana, Latina",4.5,4.5,4.0,
239,240,Bistro Bèc,4.5,167.0,http://bistrobec.menumaniamx.com/,19.430532,-99.19752,"Bar, Europea, Francesa, Internacional",4.5,4.0,4.0,4.5
240,241,Attenti,4.0,220.0,http://www.facebook.com/AttentiMx,19.428123,-99.16955,"Italiana, Pizzería, Mediterránea, Europea",4.5,4.5,4.0,4.0
241,242,Orale Arepa,4.5,140.0,http://oralearepa.com,19.432117,-99.18636,"Caribeña, Latina, Venezolana",4.5,4.5,4.5,
242,243,Zanaya,4.5,258.0,http://www.zanaya.mx/,19.423168,-99.174446,"Mexicana, Latina, Mariscos, Parrilla, Saludable",4.5,4.5,4.0,
243,244,Terraza Micheviche,5.0,28.0,http://www.micheviche.mx,19.402206,-99.18454,"Mexicana, Cervecería, Café, Mariscos, Pub",5.0,5.0,5.0,
244,245,Nobu Arcos,4.0,326.0,http://www.nobu.mx,19.38634,-99.25266,Japonesa,4.5,4.5,3.5,4.5
245,246,Pinche Gringo BBQ,4.0,327.0,http://pgbbq.mx/,19.39313,-99.15219,"Estadounidense, Parrillada, Cervecería, Bar, Pub",4.0,4.0,3.5,4.0
246,247,Soul La Roma,4.5,151.0,http://www.facebook.com/SoulLaRoma,19.419659,-99.15759,,4.5,4.0,4.0,
247,248,Ivoire,4.0,434.0,http://www.facebook.com/IvoirePolanco,19.429806,-99.19632,Francesa,4.0,4.0,3.5,4.5
248,249,El Huequito,4.5,166.0,http://www.elhuequito.com.mx/,19.430431,-99.1428,Mexicana,4.5,4.5,4.5,3.5
249,250,P.F. Chang's,4.0,539.0,http://www.pfchangsmexico.com.mx/,19.429264,-99.16221,"China, Sushi, Asiática",4.0,4.0,3.5,4.0
250,251,Kolobok Universidad,4.5,209.0,http://www.Kolobok.com.mx,19.38139,-99.15764,"Europea, Rusa",4.5,4.5,4.5,4.0
251,252,Pizzas Nosferatu,4.5,85.0,http://www.facebook.com/PizzasNosferatu,19.413797,-99.173,"Pizzería, Cervecería, Fusión",5.0,4.5,4.5,
252,253,El Califa,4.0,259.0,http://www.elcalifa.com.mx/web/,19.425678,-99.169655,"Mexicana, Latina",4.0,4.0,4.0,
253,254,Fonda 99.99,4.5,220.0,http://www.facebook.com/pages/Fonda-9999/137912503080143,19.375418,-99.17362,"Mexicana, Latina",4.5,4.0,4.5,3.5
254,255,Gruta Ehden - Polanco,4.5,151.0,http://www.grutaehden.com.mx/,19.362602,-99.17629,"Libanesa, Del Medio Oriente, Árabe",4.5,4.0,4.0,4.5
255,256,La Casa de los Tacos,4.5,136.0,http://lacasadelostacos.com.mx/inicio.html,19.348232,-99.163284,"Mexicana, Fuente de soda, Restaurantes cerveceros",4.5,4.5,4.5,
256,257,BelloPuerto,4.0,160.0,http://www.bellopuerto.com/,19.430437,-99.19659,"Mariscos, Mexicana, Parrilla, Saludable, Comida de calle",4.0,4.0,4.0,4.0
257,258,Nueve Nueve,4.0,244.0,http://www.nuevenueve.com.mx,19.418682,-99.15939,"Mexicana, Latina",4.0,4.5,4.0,4.5
258,259,La Taberna del Leon,4.5,212.0,http://www.tabernadelleon.rest/,19.339005,-99.19317,"Mexicana, Francesa",4.5,4.5,4.0,4.0
259,260,Nutra Happy,5.0,43.0,http://www.nutrahappy.green,19.34284,-99.15172,"Saludable, Café",,,,
260,261,Fonda Margarita,4.5,172.0,http://fondamargarita.com,19.378063,-99.17082,"Mexicana, Latina",4.5,4.0,4.5,4.0
261,262,Le Petit Resto,4.5,197.0,http://www.lepetitresto.com/index.html,19.385492,-99.17833,"Francesa, Europea",4.5,4.0,3.5,4.0
262,263,Tori Tori Temistocles,4.0,419.0,http://www.toritori.com.mx/,19.430443,-99.19205,"Japonesa, Sushi, Asiática, Bar, Pub",4.0,4.0,3.5,4.0
263,264,Blossom,4.0,173.0,http://www.restaurante-blossom.com/,19.393715,-99.17051,"China, Asiática",4.0,4.0,3.5,4.0
264,265,Coox Hanal,4.5,163.0,http://www.cooxhanal.com,19.42825,-99.13714,"Mexicana, Latina",4.5,4.0,4.5,4.0
265,266,Bonito Pop Food,4.0,320.0,http://www.bonito.com.mx/nosotros.html,19.411133,-99.17279,"Mexicana, Internacional, Contemporánea, Fusión",4.5,4.0,4.0,4.5
266,267,Rojo Bistrot,4.0,281.0,http://www.rojobistrot.com,19.41445,-99.17009,"Francesa, Europea",4.0,4.0,4.0,4.0
267,268,Taqueria Eｌ Progreso,4.5,58.0,http://www.facebook.com/pages/category/Grocery-Store/Taqueria-el-progreso-100958898229038/,19.434114,-99.156204,"Mexicana, Latina, Española",5.0,4.5,5.0,
268,269,Los Canarios,4.0,188.0,http://loscanarios.com.mx/marquis-reforma/,19.42461,-99.17322,"Mexicana, Latina, Internacional",4.0,4.0,4.0,
269,270,La Casa de Tono de Marina Nacional,4.5,108.0,http://www.lacasadetono.com.mx,19.439928,-99.17768,"Mexicana, Latina",4.5,4.5,4.5,4.0
270,271,El Tizoncito,4.0,359.0,http://www.eltizoncito.com.mx/,19.409966,-99.1751,"Mexicana, Latina, Comida rápida",4.5,4.0,4.0,4.0
271,272,"Street Restaurant, Mexico",5.0,25.0,http://www.streetrestaurantmexico.com/,19.419775,-99.17252,"Internacional, Contemporánea, Fusión, Saludable",5.0,5.0,4.5,
272,273,Estoril Polanco,4.5,139.0,http://www.estoril.rest/,19.427776,-99.19651,"Francesa, Mexicana, Contemporánea, Fusión, Saludable",4.5,4.5,4.0,4.0
273,274,Los Abanicos,4.5,66.0,http://www.taqueriaelabanico.com/precios,19.41461,-99.13036,"Mexicana, Latina",5.0,4.5,4.5,
274,275,Central de Brazil Churrascaria,4.0,362.0,http://www.centraldebrazil.com.mx,19.34633,-99.18953,"Churrasquería, Brasilera, Latina, Mariscos, Sudamericana",4.5,4.5,4.0,4.5
275,276,Central Central,4.0,330.0,http://www.centralcentral.com.mx,19.365055,-99.25877,"Europea, Española",4.0,4.0,3.5,4.5
276,277,Blanch,5.0,26.0,https://www.facebook.com/blanch-104186235082330/,19.413733,-99.1682,"Mexicana, Sudamericana, Centroamericana, Bar, Pub",,,,
277,278,Cantina La Imperial Carso,4.0,183.0,http://www.laimperialcantina.com,19.441683,-99.2038,"Mexicana, Bar",4.0,4.5,4.0,4.0
278,279,Cantina 20 |Coyoacán,4.0,146.0,http://coyoacan.lano20.com.mx/,19.344559,-99.179436,"Mexicana, Pub",4.0,3.5,3.5,
279,280,Hunan San Angel,4.0,231.0,http://www.hunan.com.mx/,19.350834,-99.18703,"China, Asiática, Fusión",4.0,4.5,3.5,4.0
280,281,Tenampa,4.0,464.0,http://www.salontenampa.com,19.44101,-99.13896,"Mexicana, Bar",3.5,4.0,4.0,4.5
281,282,Bistro 83,4.0,303.0,http://www.bistro83.com.mx,19.346046,-99.191216,"Mexicana, Española",4.5,4.0,4.0,4.5
282,283,Karisma,4.0,172.0,http://www.facebook.com/pages/Karisma-Bar-Polanco-Mexico-City/248802081820930,19.427975,-99.19352,"Mexicana, Latina, Bar",4.0,4.0,4.0,4.0
283,284,De Costa A Costa Nápoles,4.5,147.0,http://www.decostaacosta.com.mx,19.39523,-99.17459,"Mariscos, Bar, Internacional, Pub",4.5,4.0,4.5,4.0
284,285,El Japonez Polanco,4.0,389.0,http://www.eljaponez.com/,19.43041,-99.19848,"Asiática, Fusión, Japonesa, Sushi",4.0,3.5,3.5,4.5
285,286,Merkava,4.0,182.0,http://www.merkava.mx/,19.415285,-99.16935,"Mediterránea, Del Medio Oriente, Israelí",4.5,4.0,4.0,
286,287,Casa Churra,4.0,235.0,http://casachurra.com.mx,19.432537,-99.139084,"Mexicana, Latina",4.0,4.0,4.0,4.0
287,288,Puerto Madero San Angel,4.0,194.0,http://www.puertomaderorestaurantes.com/#san-angel,19.347397,-99.188614,"Mariscos, Argentina, Bar, Internacional, Pub",4.5,4.5,4.0,4.5
288,289,Prime Steak Club - Ángel De La Independencia,4.5,88.0,http://primesteakclub.com.mx/,19.428015,-99.16734,Mexicana,4.0,4.0,3.5,
289,290,Restaurante Puerto Getaria,4.5,96.0,http://www.restaurantepuertogetaria.com.mx,19.393723,-99.1755,"Europea, Española",4.5,4.5,4.0,
290,291,Casa Virginia,4.5,196.0,http://WWW.casavirginia.mx,19.41726,-99.16403,Internacional,4.5,4.0,4.0,4.0
291,292,Vegamo,4.5,84.0,http://www.vegamomx.com/,19.431644,-99.146484,Mexicana,4.5,4.5,4.5,
292,293,La Mallorquina Polanco,4.0,187.0,http://mallorquina.com.mx,19.429733,-99.19528,"Mediterránea, Europea, Española",4.0,4.5,4.0,
293,294,Restaurante Cedrón,4.0,350.0,http://cedron.mx/,19.41678,-99.175446,"Francesa, Internacional",4.5,4.5,4.0,
294,295,Hunan Reforma,4.0,279.0,http://www.hunan.com.mx/,19.406006,-99.226746,"China, Asiática",4.0,4.0,3.5,4.0
295,296,Texas Roadhouse Santa Fe,5.0,25.0,http://www.facebook.com/texasroadhousemexico,19.366877,-99.26387,Estadounidense,5.0,5.0,4.5,
296,297,Puerto Madero Arcos Bosques,4.0,206.0,http://www.puertomaderorestaurantes.com/en/bosques-de-las-lomas,19.38712,-99.252174,"Latina, Mariscos, Argentina, Internacional, Parrilla",4.5,4.5,4.0,4.0
297,298,Sud 777,4.0,531.0,http://www.sud777.com.mx/,19.308851,-99.20916,"Mexicana, Internacional, Española",4.0,4.0,3.5,4.5
298,299,Angelopolitano,4.0,307.0,http://angelopolitano.com,19.420303,-99.17323,"Mexicana, Latina",4.5,4.0,4.0,4.0
299,300,Maison de Famille,4.0,171.0,http://maisondefamille.mx,19.419798,-99.15922,"Europea, Francesa",4.0,4.0,4.0,4.0
300,301,IL Becco - Four Seasons Mexico City,4.0,180.0,http://www.ilbecco.mx,19.423573,-99.174515,"Italiana, Mediterránea, Europea",4.5,4.0,3.5,4.5
301,302,Cafetería El Péndulo Zona Rosa,4.5,128.0,http://pendulo.com/especial/sucursales,19.426046,-99.16505,"Bar, Café, Mexicana",4.0,4.0,4.0,4.5
302,303,Don Asado,4.0,423.0,http://www.donasado.com.mx/reforma,19.427437,-99.17092,"Churrasquería, Latina, Sudamericana",4.0,3.5,4.0,4.0
303,304,Lampuga Polanco,4.0,201.0,http://www.lampuga.mx/,19.430843,-99.198,"Mariscos, Mediterránea",4.5,4.5,4.0,4.5
304,305,La Casa del Pastor Oasis,4.5,77.0,http://www.lacasadelpastor.com.mx/,19.344902,-99.17968,Mexicana,4.5,5.0,4.5,
305,306,Beef bar,4.0,184.0,http://www.caminoreal.com/Micrositio/Restaurante.php?id=186,19.428095,-99.17861,Churrasquería,4.0,4.0,3.5,4.0
306,307,La Totoaba,5.0,36.0,,19.414642,-99.170235,"Mexicana, Mariscos, Parrillada, Bar, Pub",,,,
307,308,La Terrasse Martinique,5.0,23.0,http://terrassemartinique.com/,19.42681,-99.19699,"Internacional, Mexicana, Bar, Pub, Bar de vinos, Fusión japonesa",5.0,5.0,4.5,
308,309,Los Arcos Restaurant,4.0,206.0,http://www.restaurantlosarcos.com/,19.33619,-99.196655,"Saludable, Mexicana, Mariscos, Internacional",4.5,4.0,4.0,3.5
309,310,Morton's The Steakhouse,4.5,186.0,http://www.mortons.com/,19.430084,-99.211426,"Estadounidense, Churrasquería",4.5,4.5,3.5,4.0
310,311,Vuela Carmela,5.0,33.0,http://www.instagram.com/vuela.carmela/?hl=en,19.437635,-99.07968,Mexicana,5.0,5.0,4.5,
311,312,Loma Linda,4.0,388.0,http://lomalinda.com.mx,19.420172,-99.21809,"Argentina, Churrasquería",4.0,4.0,3.5,4.0
312,313,La Docena Oyster Bar & Grill,4.0,598.0,http://ladocena.com.mx/Oyster_Bar_%26_Grill/Inicio.html,19.419256,-99.15595,Mariscos,4.0,3.5,3.5,
313,314,Koku,4.0,130.0,http://Kokukoku.mx,19.429686,-99.16616,Japonesa,4.5,4.0,4.5,
314,315,Restaurante Arroyo,4.0,496.0,http://restaurantearroyo.com.mx/,19.287512,-99.17562,Mexicana,4.0,4.0,3.5,4.5
315,316,Meroma,4.5,139.0,http://www.meroma.mx,19.420021,-99.1591,"Internacional, Contemporánea",4.5,4.5,4.0,
316,317,Yoru Handroll and Sushi Bar,4.5,63.0,http://www.yoru.mx,19.41991,-99.17057,"Japonesa, Mariscos, Sushi, Asiática, Comedores",5.0,5.0,5.0,
317,318,Texas Ribs Buenavista,4.0,177.0,http://www.texasribs.com.mx/,19.450983,-99.15141,Estadounidense,4.0,4.0,4.0,
318,319,El Jamil,4.5,168.0,http://eljamil.mx,19.41423,-99.16685,"Libanesa, Del Medio Oriente, Mediterránea",4.5,4.0,4.0,4.0
319,320,El Beneficio Bistrot,4.5,122.0,http://www.instagram.com/el_beneficiodeladuda/,19.35342,-99.15935,"Mexicana, Café, Contemporánea, Fusión, Internacional, Bar de vinos",4.5,4.0,4.0,
320,321,Sesame,4.0,239.0,https://www.facebook.com/sesamemx,19.419756,-99.16073,"Asiática, Tailandesa",4.0,3.5,4.0,4.5
321,322,Cancino Cibeles.,4.0,220.0,http://archipielagocorp.com/,19.42024,-99.16673,"Italiana, Pizzería",4.5,4.0,4.0,
322,323,Rodizio CDMX,4.5,93.0,http://rodiziorestaurante.com,19.391993,-99.172935,"Churrasquería, Brasilera",4.5,4.5,4.0,
323,324,Catorze,5.0,37.0,http://www.restaurantecatorze.com.mx,19.43147,-99.18376,"Mediterránea, Fuente de soda, Comedores",,,,
324,325,Restaurante Hotel Lepanto,5.0,38.0,http://www.hotellepanto.com,19.442247,-99.14831,Mexicana,4.5,5.0,4.5,
325,326,Loma Linda Plaza Carso,4.0,317.0,http://lomalinda.com.mx/reservaciones/,19.440886,-99.20418,"Argentina, Churrasquería",4.0,4.0,3.5,4.0
326,327,Sartoria,4.0,183.0,http://www.sartoria.mx/,19.421902,-99.16054,"Mexicana, Italiana",4.5,4.5,4.0,
327,328,Torre de Castilla,4.0,225.0,http://grupocastellano.com.mx/torre-castilla/,19.433002,-99.20684,Española,4.0,4.5,3.5,4.0
328,329,Texas Ribs Plaza Central,4.0,150.0,http://www.texasribs.com.mx,19.378023,-99.09588,"Estadounidense, Parrillada",4.0,3.0,3.5,
329,330,Belfiore Ristorante & Pizza,4.0,137.0,http://www.belfiore.mx/,19.43212,-99.20366,"Italiana, Pizzería, Mediterránea, Europea",4.5,4.5,4.0,
330,331,La Bodeguita del Medio,4.0,233.0,http://www.labodeguitadelmedio.com.mx,19.419493,-99.17112,"Caribeña, Latina, Cubana, Centroamericana",4.0,4.0,3.5,4.0
331,332,Cantina La Imperial Samara,4.0,110.0,http://www.laimperialcantina.com,19.368282,-99.25922,"Mexicana, Latina",4.5,4.5,4.0,
332,333,Dawat Mexico,4.0,181.0,http://www.resdawat.com,19.430859,-99.20301,"De la India, Asiática",4.0,3.5,3.5,3.0
333,334,Frutos Prohibidos ARTZ,5.0,24.0,http://www.frutosprohibidos.com/,19.3161,-99.22091,"Mexicana, Sopas",,,,
334,335,Mandolina Roma,5.0,23.0,http://mandolina.mx,19.416012,-99.15817,"Italiana, Francesa, Mexicana, Pizzería, Internacional",5.0,5.0,4.5,
335,336,Simon's,4.0,126.0,http://www.simons.com.mx/,19.436138,-99.20533,"Mexicana, Mariscos",4.5,4.5,4.0,4.5
336,337,El Parnita,4.0,246.0,http://www.elparnita.com,19.414072,-99.16268,Mexicana,4.5,4.0,4.0,4.5
337,338,La Loggia Ristorante Pizzeria,4.0,308.0,http://www.laloggia.mx,19.429241,-99.19386,"Italiana, Pizzería, Mediterránea, Europea",4.0,4.0,4.0,4.5
338,339,Centro Asturiano de México SC,4.5,113.0,http://www.cassatt.mx/restaurante-polanco.html,19.427301,-99.19188,"Española, Europea",4.5,4.5,4.0,4.0
339,340,Nexo Wine Bistrot,4.5,75.0,http://www.nexobistrot.com,19.428204,-99.192314,"Mexicana, Contemporánea, Fusión",5.0,4.5,4.5,
340,341,Terraza Cha Cha Chá,4.0,269.0,http://www.terrazachachacha.com,19.436117,-99.152824,Bar,4.5,4.0,4.0,
341,342,La Vaka Las Antenas,4.5,87.0,http://www.lavaka.mx,19.314337,-99.0768,,4.5,4.0,4.0,
342,343,Aborigen,5.0,53.0,https://www.facebook.com/aborigenrestobar/,19.414196,-99.15855,"Bar, Pizzería, Café, Contemporánea",4.5,4.5,4.5,
343,344,El Autentico Pato Manila,4.5,85.0,,19.404343,-99.17033,"Mexicana, Asiática",4.5,4.5,4.0,
344,345,Jaleo Bar de Tapas,4.0,163.0,http://www.jaleo.mx/,19.429981,-99.19755,"Bar, Europea, Española, Mariscos, Mediterránea",4.5,4.0,4.0,4.0
345,346,Mazurka,4.5,103.0,http://www.restaurantemazurka.com/,19.392332,-99.177505,Polaca,4.5,5.0,4.5,4.5
346,347,Zeru Restorán,4.5,96.0,http://zeru.mx/,19.351501,-99.19058,"Europea, Española, Mediterránea",4.5,5.0,4.0,4.5
347,348,Huset,4.0,323.0,http://www.huset.mx/,19.418987,-99.16375,"Parrillada, Mexicana, Parrilla",4.0,4.0,3.5,
348,349,Costeñito Market,4.5,121.0,https://www.facebook.com/CostenitoMarket/,19.43199,-99.19821,"Bar, Mariscos",4.5,4.5,4.0,5.0
349,350,Carolo ,4.0,148.0,http://www.carolo.com.mx/,19.359604,-99.27849,Italiana,4.5,4.0,4.0,4.0
350,351,Kitchen 6,4.0,132.0,http://www.kitchen6.com.mx/condesa.html,19.411764,-99.167625,"Bar, Estadounidense, Restaurantes cerveceros",4.5,4.0,4.0,4.0
351,352,Taqueria la Onda,4.5,66.0,http://www.laonda.com.mx/,19.427835,-99.21137,Mexicana,4.5,4.5,4.5,
352,353,Eno,4.0,340.0,http://www.eno.com.mx/,19.4332,-99.18557,"Mexicana, Café",4.0,4.0,4.0,4.0
353,354,Filigrana,4.5,73.0,http://www.filigrana.com.mx/,19.417336,-99.1739,"Mexicana, Española",4.0,4.0,4.0,
354,355,Los Dones,4.5,83.0,,19.434513,-99.14622,Mexicana,4.0,4.0,3.5,
355,356,Asian Bay,4.0,240.0,http://www.asian-bay.com,19.410896,-99.17476,"China, Asiática",4.5,4.0,4.0,4.5
356,357,Por Siempre Vegana Taqueria,4.5,96.0,https://www.facebook.com/porsiempreveganataqueria/info/?entry_point=page_nav_about_item&tab=page_info,19.411577,-99.16617,"Mexicana, Comida rápida, Latina, Comida de calle, Sudamericana, Centroamericana",4.5,4.5,4.5,
357,358,uina,4.5,57.0,http://cuina.com.mx/,19.419964,-99.15567,"Mexicana, Café, Internacional",4.5,4.5,4.5,
358,359,Puerto Prendes,4.5,66.0,http://puertoprendes.com/,19.42011,-99.16516,"Mexicana, Mariscos, Internacional",3.5,3.5,3.5,
359,360,Porco Rosso / Original K.C.B.B.Q,4.0,208.0,http://www.porcorossobbq.com/,19.415865,-99.159035,"Estadounidense, Parrillada",4.0,4.0,3.5,
360,361,Matisse,4.0,262.0,https://www.matisse.com.mx/,19.411718,-99.1678,"Mexicana, Internacional",4.0,4.0,3.5,4.0
361,362,Sylvestre Polanco,4.0,254.0,http://www.sylvestre.mx,19.430626,-99.197845,,4.0,4.0,4.0,
362,363,Cafe Torino Sante Fe,4.0,218.0,https://www.facebook.com/pages/Caf%C3%A9-Torino-Santa-Fe/230434577010705,19.366135,-99.264786,Italiana,4.5,4.0,4.0,5.0
363,364,Fogo de Chão Brazilian Steakhouse,4.5,104.0,http://fogodechao.com.mx,19.364803,-99.25921,"Churrasquería, Brasilera, Sudamericana",4.5,4.5,4.5,
364,365,Tamayo,4.5,97.0,http://museotamayo.org/restaurante,19.425379,-99.181465,"Latina, Mexicana, Internacional, Española",4.0,4.0,4.0,
365,366,El Charco De Las Ranas Río Mixcoac,4.0,240.0,http://elcharcodelasranasriomixcoac.com.mx,19.37074,-99.18564,"Mexicana, Latina",4.5,4.0,4.0,4.0
366,367,La Casa del Pastor Santa Fe,4.5,50.0,http://www.lacasadelpastor.com.mx,19.37693,-99.255554,"Mexicana, Latina, Española",5.0,5.0,4.0,
367,368,Xanat Bistro & Terraza,4.5,112.0,https://www.marriott.com/hotels/hotel-information/restaurant/mexjw-jw-marriott-hotel-mexico-city/?scid=45f93f1b-bd77-45c9-8dab-83b6a417f6fe&y_source=1_Mzk5ODY4Ny03NjktbG9jYXRpb24ud2Vic2l0ZQ%3D%3D,19.427427,-99.19495,Mexicana,4.5,4.5,4.5,4.5
368,369,Cafebrería El Péndulo Roma.,4.5,129.0,http://pendulo.com,19.418386,-99.158745,"Café, Mexicana",4.5,4.5,4.5,
369,370,Nobu Polanco,4.0,142.0,https://www.nobu.mx/ubicaciones,19.430632,-99.19782,"Japonesa, Mariscos, Sushi, Asiática",4.0,4.0,3.0,
370,371,NONSOLO Centro Histórico,4.0,88.0,http://nonsolo.mx/,19.43242,-99.13761,"Italiana, Mediterránea",4.5,4.5,4.0,4.0
371,372,Broka Bistrot,4.0,178.0,http://www.brokabistrot.com,19.415642,-99.16005,"Mexicana, Latina, Europea, Fusión",4.0,4.0,4.0,4.0
372,373,Raiz,4.0,137.0,http://www.restauranteraiz.com,19.431986,-99.18637,Mexicana,4.5,4.0,3.5,
373,374,Estiatorio Mythos,4.0,201.0,http://www.estiatoriomythos.com,19.429497,-99.19362,"Mediterránea, Griega, Parrilla, Saludable",4.0,4.0,3.5,4.0
374,375,Shu,4.0,138.0,http://www.shu.com.mx/,19.365189,-99.26256,"Japonesa, Internacional, Fusión",4.5,4.0,3.5,4.0
375,376,Cafebrería El Pendulo,4.0,156.0,http://www.pendulo.com,19.430353,-99.195854,"Mexicana, Café, Bar, Pub",4.0,4.0,4.0,
376,377,Tandoor,4.0,284.0,http://www.tandoor.com.mx/,19.43049,-99.178856,"De la India, Asiática, Pakistaní",4.0,4.0,3.5,4.0
377,378,Antigua Hacienda de Tlalpan,4.0,354.0,http://aht.mx,19.289055,-99.16308,"Mexicana, Latina",4.0,4.0,3.5,4.5
378,379,Casa Bell - Zona Rosa,4.0,118.0,http://www.bellinghausen.mx/casabell,19.425108,-99.16959,"Mexicana, Internacional",4.0,4.5,3.5,4.5
379,380,DOLCE MEXICO,4.5,57.0,http://www.dolcemexico.com,19.395885,-99.17446,"Italiana, Mexicana, Española",4.5,5.0,4.5,
380,381,Carajillo Roma,4.5,76.0,http://www.carajillomx.com,19.420782,-99.169685,"Mexicana, Contemporánea, Fusión, Mariscos, Internacional",3.0,3.0,3.0,
381,382,Centenario 107,4.0,179.0,http://www.centenario107.com,19.356071,-99.16338,"Bar, Pizzería, Pub",4.0,4.0,4.0,3.5
382,383,Cantina La Coyoacana,4.0,344.0,http://lacoyoacana.com,19.349104,-99.16142,"Mexicana, Latina, Bar",4.0,4.0,4.0,4.5
383,384,Terrace at Downtown Mexico,4.0,115.0,http://www.downtownmexico.com/,19.432865,-99.136246,"Bar, Mexicana, Internacional, Pub",4.0,4.0,4.0,5.0
384,385,Michoacanissimo,4.5,82.0,http://www.michoacanisimo.com/contacto.html,19.312061,-99.16144,"Mexicana, Latina, Bar, Española, Pub",4.5,4.0,4.5,
385,386,El Sabor del Tiempo,4.0,171.0,http://www.elsabordeltiempo.mx/,19.395666,-99.17249,"Mexicana, Latina",4.5,4.5,4.5,4.5
386,387,Wok'ando Cocina Casual,5.0,23.0,http://wokando.com.mx,19.431787,-99.15424,"Asiática, Contemporánea, Fusión",,,,
387,388,Frutos Prohibidos Pedregal,5.0,21.0,http://frutosprohibidos.com/,19.42426,-99.20347,,,,,
388,389,Meson Puerto Chico,4.5,99.0,,19.437454,-99.155624,"Internacional, Española, Mediterránea, Europea",4.5,4.5,4.0,4.5
389,390,Básico,4.5,71.0,https://www.sebasico.com,19.430433,-99.19726,"Latina, Comida rápida, Saludable, Española",5.0,5.0,5.0,
390,391,Tacontento,4.0,125.0,http://www.facebook.com/tacontento1619/,19.425533,-99.16361,"Mexicana, Latina, Comida rápida",4.0,4.0,4.5,4.0
391,392,Hunan Artz,4.5,89.0,http://www.hunan.com.mx/,19.313856,-99.21896,"China, Asiática",4.5,4.5,4.0,
392,393,El Cien,4.5,34.0,https://www.facebook.com/restauranteelcien/,19.410599,-99.17471,"Española, Bar, Pub, Bar de vinos",5.0,5.0,5.0,
393,394,Macarella,5.0,28.0,http://macarella.mx/,19.429092,-99.21682,"Italiana, Mediterránea, Española",,,,
394,395,Mora Mora Condesa,5.0,22.0,http://moramora.mx,19.40981,-99.17173,"Internacional, Fusión, Saludable",5.0,5.0,4.5,
395,396,Restaurante Murakami,4.0,116.0,https://www.facebook.com/restaurantemurakami/,19.432066,-99.18347,"Japonesa, Sushi, Asiática",4.5,4.0,4.5,3.5
396,397,La Zaranda Miravalle,4.5,117.0,http://www.archipielagocorp.com/zaranda.html,19.420172,-99.16671,"Mexicana, Mariscos, Latina",4.5,4.5,4.5,
397,398,Expendio Del Maiz Sin Nombre,5.0,37.0,http://www.expendiodemaiz.com/,19.414066,-99.162796,"Mexicana, Latina, Española",4.5,4.5,4.5,
398,399,Mora Mora Insurgentes (to Go),5.0,20.0,,19.368773,-99.18,Internacional,,,,
399,400,Saks Barranca,4.0,223.0,http://www.saks.com.mx/barranca,19.362787,-99.182655,"Mexicana, Internacional, Contemporánea, Fusión",4.0,4.0,3.5,4.5
400,401,Delirio,4.0,345.0,http://www.delirio.mx,19.417341,-99.16399,,4.0,3.5,4.0,4.5
401,402,La Giralda,5.0,23.0,http://www.la-giralda.com,19.44257,-99.15534,"Mexicana, Internacional, Contemporánea",,,,
402,403,Alba cocina Local,5.0,43.0,https://www.facebook.com/alba.cocinalocal/,19.42469,-99.16081,Mexicana,4.5,4.5,4.5,
403,404,Aleli,4.5,59.0,http://www.aleliroma.com/,19.420074,-99.170006,"Internacional, Mexicana, Parrilla, Contemporánea, Comedores",4.5,4.5,4.5,
404,405,Fiebre de Malta,4.0,170.0,http://www.fiebredemalta.com,19.428429,-99.16903,"Bar, Pub, Cervecería, Internacional",4.0,4.0,4.0,4.5
405,406,Mexa Cocina Del Alma,5.0,20.0,http://instagram.com/mexa_cocinadelalma?igshid=YmMyMTA2M2Y=,19.432684,-99.13325,"Mexicana, Francesa, Asiática",,,,
406,407,Sushi Iwashi,4.5,53.0,http://edokobayashi.com,19.430834,-99.20069,"Japonesa, Mariscos, Sushi, Asiática",5.0,4.0,4.5,
407,408,Asai Kaiseki Cuisine,4.5,49.0,https://www.facebook.com/profile.php?id=100082955247861,19.430544,-99.19888,"Sushi, Kaiseki",5.0,4.5,4.5,
408,409,Prego,4.0,164.0,http://www.prego.com.mx,19.427397,-99.196556,Italiana,4.5,4.5,4.0,4.0
409,410,Belmondo,4.0,195.0,http://belmondo.com.mx,19.419756,-99.157616,,4.0,4.0,4.0,4.0
410,411,Carajillo Nápoles,4.5,41.0,http://carajillomx.com/,19.432684,-99.13325,"Mexicana, Bar, Contemporánea, Pub, Fusión",,,,
411,412,LA CASSEROLE,4.5,95.0,,19.354418,-99.185074,Francesa,4.5,4.5,4.0,3.5
412,413,La Lanterna,4.0,180.0,http://www.lalanterna.com.mx,19.42413,-99.17262,"Italiana, Mediterránea, Europea",4.0,4.5,4.0,4.0
413,414,Cantina De Dakota,5.0,32.0,http://www.cantinadakota.com,19.395746,-99.174545,"Mexicana, Estadounidense, Bar, Pub, Bar de vinos",,,,
414,415,Toro Latin Kitchen & Bar,4.5,88.0,http://www.richardsandoval.com/toromexicocity/,19.364641,-99.25924,Mexicana,4.5,4.5,3.5,
415,416,Market Gourmet Cafe,4.5,57.0,http://www.marquisreforma.com/restaurantes,19.424816,-99.17379,"Italiana, Mexicana, Asiática, Argentina, Sudamericana",4.5,4.5,4.5,
416,417,Mia Domenicca,4.0,111.0,http://www.facebook.com/miadomenicca/,19.419243,-99.17066,"Mediterránea, Europea",4.5,4.5,4.0,
417,418,Restaurante La Reforma Uno,4.5,61.0,http://lareformaunocdmx.com/,19.351143,-99.18653,Mexicana,4.5,4.5,4.0,
418,419,Chilakiller's,4.5,80.0,http://chilakillersmenu.wixsite.com/chilakillersmenu,19.40467,-99.18471,Mexicana,4.5,4.5,4.5,4.5
419,420,Casa Ávila ,4.0,249.0,http://www.casaavila.com.mx,19.421343,-99.07824,"Mediterránea, Española",4.0,4.0,3.5,4.0
420,421,Bistro Fusión,4.5,44.0,http://bistrofusion.com.mx/restaurant/,19.396118,-99.17441,Mexicana,4.0,4.5,4.0,
421,422,El Borrego Viudo,4.0,267.0,http://taqueria-el-borrego-viudo-taco-restaurant.business.site,19.399357,-99.185265,"Mexicana, Latina, Comida rápida",4.0,4.0,4.0,3.0
422,423,La Barraca Valenciana,4.5,73.0,http://www.labarracavalenciana.com,19.352343,-99.16355,Española,4.5,4.5,4.5,4.5
423,424,Fisher's Santa Fe,4.0,222.0,http://www.fishers.com.mx,19.366783,-99.25955,"Mexicana, Latina, Mariscos",4.0,4.0,4.0,3.5
424,425,Restaurante Prendes,4.0,145.0,http://www.prendes.mx/,19.43582,-99.2031,"Mexicana, Internacional",4.5,4.5,4.0,
425,426,Restaurantre 5M,4.5,83.0,http://www.restaurante5m.com,19.434778,-99.13985,"Mexicana, Latina, Internacional, Contemporánea",4.0,4.0,4.0,
426,427,Texas Ribs Insurgentes,4.0,181.0,http://www.texasribs.com.mx/restaurante1.html,19.389086,-99.173935,"Estadounidense, Parrillada",4.0,4.0,3.5,4.0
427,428,Market Kitchen,4.0,165.0,http://www.marketkitchendf.com/en/,19.365143,-99.25867,Fusión,4.0,4.5,4.0,
428,429,Yemanya,5.0,28.0,http://yemanya.mx,19.415369,-99.1589,"Latina, Caribeña, Peruana, Mariscos, Española, Contemporánea, Sudamericana",4.5,5.0,4.5,
429,430,Restaurante El Asado Argentino,4.5,113.0,http://asadoargentino.com.mx/,19.291565,-99.174194,"Churrasquería, Argentina, Sudamericana",4.5,4.5,4.0,4.5
430,431,Salón 16,4.5,52.0,http://cantinasalon16.mx/,19.433165,-99.142876,"Mexicana, Latina, Española",4.5,4.5,4.5,
431,432,fakc-yeah,5.0,34.0,http://www.fakc-yeah.com,19.409267,-99.17244,"Comida rápida, Estadounidense, Internacional",5.0,5.0,5.0,
432,433,Maralunga Pizza Grill & Bar,4.0,140.0,http://www.maralunga.com.mx,19.332207,-99.20827,"Italiana, Mediterránea, Europea",4.0,4.0,3.5,4.5
433,434,Restaurant Palominos Palmas,4.5,45.0,http://www.restaurantpalominos.mx/,19.42972,-99.21116,"Churrasquería, Mexicana, Parrilla",4.5,4.5,4.0,
434,435,Bodega 94,5.0,18.0,http://www.bodega94.com,19.433102,-99.164406,"Estadounidense, Bar, Internacional, Pub",,,,
435,436,L'Entrecote,4.0,127.0,http://entrecote.mx,19.4299,-99.19754,"Francesa, Europea",4.5,4.5,4.0,
436,437,Piantao,4.0,205.0,http://www.piantao.com,19.296576,-99.18198,Argentina,4.5,4.5,4.0,4.5
437,438,Adonis,4.0,126.0,http://adonis.com.mx,19.435345,-99.18811,"Libanesa, Del Medio Oriente, Árabe",4.5,4.5,4.0,3.5
438,439,Roldán 37,4.5,80.0,http://www.facebook.com/Roldan37,19.428814,-99.127014,"Mexicana, Latina, Española",4.5,4.5,4.5,
439,440,La Casbah,4.5,77.0,http://www.facebook.com/pages/Restaurante-La-Casbah/115800428486599,19.409607,-99.16593,"Africana, Marroquí",4.5,4.0,4.0,3.5
440,441,Mesón del Toreo (Gaona),4.5,78.0,http://www.mesondeltoreo.com,19.453934,-99.21942,"Mexicana, Bar, Pub",4.5,4.5,4.0,
441,442,Las Chalupitas,4.5,77.0,http://laschalupitas.com.mx/,19.406199,-99.17236,"Mexicana, Latina",4.5,4.5,4.5,
442,443,Agapi-Mu,4.0,98.0,https://www.agapimu.rest/,19.409529,-99.17821,"Griega, Mediterránea",4.0,4.0,3.5,4.0
443,444,Comedor Jacita,4.0,171.0,http://comedorjacinta.com,19.430079,-99.19609,"Mexicana, Latina",4.0,4.0,3.5,
444,445,Margaret Chic Kitchen,4.5,43.0,http://la-perle-dasie-sttropez.eatbu.com/?lang=en,19.428143,-99.19237,,5.0,5.0,4.5,
445,446,El Convite,4.5,75.0,http://www.elconvite.com.mx/,19.362114,-99.1486,"Cervecería, Fusión, Francesa, Mexicana, Pub",4.5,3.5,3.5,3.5
446,447,Mandolina Bosques,4.5,32.0,http://mandolina.mx,19.392033,-99.25936,"Italiana, Internacional",5.0,5.0,4.5,
447,448,Aló,5.0,29.0,http://www.aloveg.com,19.389547,-99.17545,"Saludable, Café, Internacional",,,,
448,449,Rokai,4.0,300.0,http://www.facebook.com/rokaimexico,19.428694,-99.16943,"Japonesa, Mariscos, Sushi, Asiática",4.5,3.5,3.5,4.0
449,450,The Centro Restaurant,4.5,54.0,http://www.marriott.com/hotels/travel/mexcy-courtyard-mexico-city-airport/,19.436975,-99.082085,"Mexicana, Latina, Española",4.5,4.5,4.0,
450,451,Pizzeria Balboa,4.0,120.0,http://www.facebook.com/balboapizzeria,19.429802,-99.16588,"Italiana, Pizzería",4.5,4.0,4.0,
451,452,Como - Aristoteles,4.5,61.0,http://www.restaurantcomo.com,19.435343,-99.193184,,4.5,4.5,4.0,4.5
452,453,Arango Cocina de Raíces,4.0,115.0,http://arangorestaurante.com/,19.43615,-99.15279,Mexicana,4.0,4.5,4.0,
453,454,El Lago Restaurante,3.5,397.0,https://www.facebook.com/RestauranteElLagoMx/,19.417368,-99.19965,,3.5,4.0,3.0,4.0
454,455,Gloutonnerie,4.0,122.0,http://www.gloutonnerie.mx,19.429348,-99.1895,Francesa,4.0,4.5,3.5,4.0
455,456,Sala Gastronómica,4.5,76.0,http://www.salagastronomica.mx,19.425428,-99.18615,"Mexicana, Latina",4.0,4.5,4.0,
456,457,La Mansión - Aeropuerto Terminal 1,3.5,377.0,http://www.lamansion.com.mx,19.435646,-99.08274,Churrasquería,4.0,4.0,3.5,4.0
457,458,Prosecco Polanco,4.0,267.0,http://www.prosecco.mx,19.430555,-99.19759,"Italiana, Pizzería, Mediterránea, Europea",4.0,3.5,3.5,4.5
458,459,Koma,4.5,59.0,http://www.komamx.com,19.428888,-99.21667,Española,5.0,5.0,4.5,
459,460,Shaka 808 Santa Fe,4.5,42.0,http://shaka.mx/,19.361166,-99.278854,"Japonesa, Hawaiana, Sushi, Fusión, Saludable",5.0,5.0,5.0,
460,461,Palominos Insurgentes,4.0,143.0,http://restaurantepalominos.com/contactopalominosinsurgentes/,19.392586,-99.17403,"Mexicana, Churrasquería, Latina",4.5,4.5,3.5,3.5
461,462,Romina,4.0,135.0,http://www.romina.com.mx/,19.435633,-99.19308,"Italiana, Europea",4.5,4.5,4.0,4.5
462,463,Yamasan,4.0,145.0,https://www.facebook.com/RamenCondesa,19.410564,-99.17486,"Japonesa, Asiática, Sopas",4.0,4.0,4.0,
463,464,Le Pain Quotidien,3.5,384.0,https://www.lepainquotidien.com/mx/es/locations/polanco/oscar-wilde-?y_source=1_MTA5NTAyNTctNzY5LWxvY2F0aW9uLndlYnNpdGU%3D#30?utm_source=yext&utm_medium=business-listing&utm_campaign=,19.430582,-99.19723,"Francesa, Café, Europea",4.0,4.0,3.5,4.5
464,465,EL TAPEO,4.5,53.0,http://www.eltapeo.com.mx/,19.427883,-99.16326,Española,4.5,4.5,4.5,
465,466,La Trainera,4.0,155.0,http://latrainera.com.mx/restaurantes/,19.427618,-99.196556,"Mariscos, Española",4.0,4.5,4.0,4.5
466,467,El Samurai,4.0,111.0,http://www.facebook.com/pages/El-Samurai/171323746229285,19.394293,-99.1788,"Japonesa, Sushi, Asiática",4.5,4.0,4.0,4.0
467,468,Tres Galeones,4.5,93.0,http://tresgaleones.com/,19.417515,-99.16097,"Mexicana, Latina, Mariscos, Fusión",4.5,4.5,4.0,
468,469,Xel-Ha Bar,4.0,70.0,http://www.facebook.com/Xel-Ha-557393331068601/,19.411602,-99.17453,"Mexicana, Sopas",4.5,4.5,4.0,4.0
469,470,"Belforno - Focaccieria, Ristorante & Vino",4.5,37.0,http://belforno.mx/,19.409239,-99.17777,"Italiana, Pizzería, Mediterránea",5.0,4.5,4.5,
470,471,Candela Romero,4.0,144.0,http://www.candelaromero.mx,19.425797,-99.171974,"Española, Mediterránea",4.0,4.5,4.0,
471,472,Potzollcalli Centro Histórico,4.0,192.0,http://www.potzollcalli.com/carta,19.434313,-99.1368,Mexicana,4.0,4.0,4.0,3.5
472,473,Puntarena,4.0,102.0,http://www.puntarena.mx/,19.346472,-99.18947,"Mexicana, Mariscos",4.0,4.5,4.0,4.0
473,474,La Tecla,4.0,146.0,http://www.latecla.mx,19.420015,-99.16562,"Internacional, Fusión, Mexicana, Bar, Mariscos, Pub",4.0,4.0,4.0,4.0
474,475,Restaurante Domingo Santo,4.5,91.0,http://www.domingosanto.com/restaurante.html,19.436947,-99.1341,"Mexicana, Contemporánea",4.5,4.5,4.0,
475,476,Ouzeria,4.0,133.0,https://www.facebook.com/ouzeriamx/,19.431028,-99.19595,"Mediterránea, Griega",4.0,4.0,4.0,
476,477,Costa Guadiana,4.0,116.0,http://www.costaguadiana.com.mx,19.38712,-99.25212,"Mexicana, Latina, Mariscos",4.0,4.0,3.5,4.0
477,478,Casa Prunes,5.0,18.0,,19.417587,-99.15777,"Mexicana, Bar, Europea, Contemporánea, Pub",5.0,5.0,4.5,
478,479,Piyoli Escandón,5.0,29.0,http://piyoli.com/,19.400377,-99.17195,"Mexicana, Saludable",,,,
479,480,Blossom,4.0,71.0,http://www.restaurante-blossom.com/,19.42748,-99.21894,"China, Asiática",4.0,3.5,3.5,
480,481,Hacienda Del Parián,4.0,73.0,http://www.parianeldongu.com,19.282469,-99.47272,"Mexicana, Latina",4.0,4.0,4.0,4.0
481,482,La Pause,4.0,126.0,http://www.restaurantelapause.com/laPause/Home.html,19.34979,-99.17384,"Mexicana, Latina, Internacional",4.0,4.0,4.0,4.5
482,483,El Lugar Del Mariachi,5.0,19.0,,19.426867,-99.16315,Mexicana,5.0,5.0,4.5,
483,484,Sal y Leña,4.0,106.0,http://www.salylena.com.mx,19.367249,-99.25923,"Churrasquería, Mariscos, Parrilla",4.5,4.5,4.0,
484,485,Tapas Guria,4.5,37.0,http://www.guria.mx,19.43529,-99.20161,"Española, Bar, Mediterránea, Pub",,,,
485,486,Fonda Garufa,4.0,165.0,http://www.garufa.rest,19.41155,-99.174706,"Italiana, Mexicana, Bar, Internacional, Pub, Bar de vinos",4.5,4.0,4.0,4.5
486,487,Restaurante Asturiano Polanco,4.0,109.0,http://www.cassatt.mx,19.427256,-99.19197,"Española, Europea",4.0,4.0,4.0,4.0
487,488,El Huequito,4.0,136.0,http://www.elhuequito.com.mx/,19.21694,-98.99595,"Mexicana, Latina",4.5,4.0,4.0,3.5
488,489,Goguinara,4.0,76.0,http://www.facebook.com/Goguinara-621727614519149,19.427221,-99.16419,"Churrasquería, Coreana, Asiática",4.5,4.0,4.5,
489,490,China Grill,4.0,180.0,http://chinagrillrestaurant.com/mexico_city,19.428102,-99.17901,"China, Internacional, Asiática",4.0,4.5,3.5,4.5
490,491,Restaurante El Gnomo,4.5,84.0,http://www.elgnomorestaurante.com/,19.342175,-99.18358,Mexicana,4.5,4.5,4.5,4.5
491,492,Savannah,4.5,94.0,http://www.savannah.mx,19.403028,-99.242485,"Internacional, Parrilla",4.5,4.5,4.5,4.0
492,493,BARBARO Club House,4.5,25.0,https://instagram.com/barbaroclubhouse?igshid=zddkntzintm=,19.43635,-99.220856,"Mexicana, Bar, Mariscos, Parrillada, Pub, Fusión",,,,
493,494,Yerba Santa,5.0,19.0,http://yerbasantamx.com/,19.427824,-99.17342,"Mexicana, Contemporánea",,,,
494,495,Gracias Comedor,5.0,36.0,http://www.gracias.kitchen,19.418486,-99.16722,"Mexicana, Internacional, Contemporánea",,4.5,4.0,
495,496,Los Canarios Santa Fe,4.0,232.0,http://loscanarios.com.mx/santa-fe/,19.365488,-99.26494,"Mexicana, Latina",4.0,4.5,3.5,4.0
496,497,Paxia,5.0,20.0,,19.431221,-99.13594,"Mexicana, Contemporánea, Bar de vinos, Comedores",5.0,5.0,5.0,
497,498,Hilaria Gastrobar,4.5,65.0,http://www.facebook.com/Hilaria.Gastrobar,19.43333,-99.13558,"Mexicana, Bar, Pub",4.5,4.5,4.5,4.5
498,499,La Matra-K Gastro Pub,4.5,78.0,http://www.facebook.com/gastropubMTK,19.436329,-99.152435,"Mexicana, Pizzería, Internacional, Pub, Argentina",4.5,4.5,4.5,4.5
499,500,Tacos El Caminero,4.0,135.0,http://www.tacoselcaminero.com,19.434269,-99.15466,"Mexicana, Comida rápida, Latina",4.5,4.0,4.5,
500,501,Pizza del Perro Negro,4.0,408.0,http://www.pizzadelperronegro.com,19.416454,-99.16965,Pizzería,4.0,3.5,4.0,4.0
501,502,Café Urbano,4.0,98.0,http://www.ihg.com/intercontinental/hotels/gb/en/mexico/mexha/hoteldetail,19.427294,-99.19381,,4.0,4.0,3.5,
502,503,Tezontle Restaurante,5.0,25.0,http://casadelaluz.mx/hotel-boutique-restaurante-cafeteria-centro-historico-zocalo,19.429558,-99.132996,Española,,,,
503,504,Palmares Azotea,4.0,136.0,http://roma-norte.palmaresazotea.com/,19.419352,-99.16793,"Bar, Mariscos, Internacional",4.0,4.0,3.5,
504,505,King Fish,4.0,84.0,http://loscanarios.com.mx/king-fish-santa-fe/,19.358166,-99.27796,"Mariscos, Internacional",4.0,4.5,4.0,3.5
505,506,Tr3s Tonala,4.5,43.0,https://www.facebook.com/3tonala/,19.41361,-99.161674,Mexicana,4.5,4.5,4.5,
506,507,Frutos Prohibidos Médica Sur,5.0,17.0,http://frutosprohibidos.com/,19.2964,-99.16084,Mexicana,,,,
507,508,Blanco Castelar,4.0,98.0,http://www.grupocarolo.com.mx/blancocastelar,19.430431,-99.19969,"Bar, Internacional, Contemporánea, Pub",4.5,4.5,4.0,
508,509,Cancino Alameda,4.5,67.0,http://www.archipielagomx.com,19.4362,-99.14607,"Italiana, Pizzería",4.5,4.5,4.0,
509,510,Mi Gusto Es,4.0,220.0,http://www.migustoes.com.mx/,19.432175,-99.183266,"Mexicana, Latina, Mariscos",4.0,4.0,4.0,3.5
510,511,El Bazar Sabado S.A.,4.5,88.0,,19.343987,-99.19194,Mexicana,3.5,3.5,3.5,
511,512,L Osteria del Becco,4.0,159.0,http://www.losteriadelbecco.com/,19.432611,-99.2005,"Italiana, Europea, Bar de vinos, Mediterránea",4.0,4.0,3.5,4.0
512,513,Nonsolo Polanco,4.0,223.0,http://www.nonsolopastapa.com/,19.43026,-99.19664,"Italiana, Mediterránea",4.0,4.0,4.0,4.0
513,514,Piloncillo y cascabel,4.5,74.0,http://www.piloncilloycascabel.com/,19.389702,-99.15882,"Mexicana, Latina, Española",4.5,4.0,4.5,4.0
514,515,Hosteria La Bota,4.0,121.0,http://www.facebook.com/Hoster%C3%ADa-La-Bota-120099684674038,19.427084,-99.13715,"Mexicana, Bar, Española",4.0,4.0,4.0,4.5
515,516,Un Lugar de la Mancha,4.0,131.0,http://unlugardelamancha.mx/,19.432741,-99.20628,"Mexicana, Internacional",4.0,4.0,3.5,4.0
516,517,El Sella,4.5,82.0,http://www.barelsella.com.mx,19.414919,-99.153755,Española,4.5,4.5,4.0,
517,518,Mercado De Coyoacan,4.5,63.0,,19.349237,-99.16098,Mexicana,4.0,3.5,4.0,
518,519,La Azotea de Barrio Alameda,4.0,85.0,http://www.barrioalameda.com/,19.436304,-99.14626,"Bar, Internacional, Mexicana",4.0,4.0,4.0,
519,520,Rosso di Sera,4.5,48.0,https://www.facebook.com/RossodiSeraMex/,19.343803,-99.15708,Italiana,4.5,4.5,4.5,
520,521,Arturo's,4.0,110.0,http://www.arturos.mx/,19.43137,-99.201164,"Europea, Francesa",4.5,4.5,4.0,4.0
521,522,El Pialadero de Guadalajara,4.0,111.0,http://www.elpialaderodeguadalajara.mx/,19.42178,-99.174355,"Mexicana, Latina",4.5,4.0,4.0,4.0
522,523,Ave María,4.0,234.0,http://avemaria.com.mx,19.348957,-99.16352,"Italiana, Mexicana",4.0,3.5,3.5,4.0
523,524,MADAI SUSHI,4.5,25.0,http://www.madaisushi.mx,19.428272,-99.16919,"Japonesa, Sushi, Fusión japonesa",5.0,5.0,5.0,
524,525,TOKYO Autentico Restaurante Japones,4.0,175.0,http://www.facebook.com/Restaurante-Tokyo-170825229620577,19.42594,-99.16537,"Japonesa, Sushi, Asiática",4.5,4.0,4.0,4.0
525,526,Cantina 20 | World Trade Center,4.0,78.0,http://wtc.lano20.com.mx/,19.39314,-99.17496,"Mexicana, Pub",4.0,3.5,3.5,
526,527,El Mirador de Chapultepec,4.5,85.0,http://www.cantinaelmirador.com,19.419744,-99.17895,Mexicana,4.5,4.5,4.0,4.5
527,528,Puntarena Palmas,4.0,91.0,http://www.puntarena.mx/,19.430098,-99.21061,Mariscos,4.5,4.0,4.0,
528,529,Nana Nigiri Bar,5.0,19.0,http://www.facebook.com/nananigiribar/,19.432829,-99.13627,"Japonesa, Sushi",,,,
529,530,El Rincon de la Lechuza,4.0,130.0,http://www.elrincondelalechuza.com.mx/,19.348679,-99.18575,"Mexicana, Latina",4.5,4.0,4.0,3.5
530,531,Caldos D' Leo,4.0,109.0,http://www.caldosdleo.mx,19.438482,-99.208206,"Mexicana, Latina, Sopas",4.5,4.5,4.0,
531,532,Cucara Macara,4.0,144.0,http://cdmxtravel.com/es/comer/cucara-macara.html,19.435719,-99.08209,"Mexicana, Latina",4.0,4.0,3.5,4.0
532,533,Punta Arena,4.0,136.0,http://www.puntarena.mx,19.400354,-99.22773,"Mariscos, Mediterránea",4.5,4.5,4.0,4.0
533,534,La Sede Rooftop Restaurant,5.0,17.0,https://www.casaprim.com.mx,19.430574,-99.15534,Española,,,,
534,535,circulo del sureste,4.5,65.0,http://www.circulodelsureste.com.mx,19.428894,-99.15345,"Mexicana, Latina, Española",4.5,4.5,4.0,4.0
535,536,Sliders Polanco,4.0,116.0,http://sliders.mx/,19.430593,-99.196686,"Estadounidense, Bar",4.0,4.0,4.0,
536,537,Fisher's Nápoles,4.0,346.0,http://www.facebook.com/grupofishers,19.389013,-99.1767,Mariscos,4.0,4.0,3.5,4.0
537,538,El Fogoncito,4.0,171.0,http://fogoncito.com,19.429253,-99.17826,"Mexicana, Latina",4.0,4.5,4.5,4.0
538,539,Anastasia,4.5,89.0,http://www.anastasia.com.mx,19.349253,-99.18938,Francesa,4.5,4.5,4.0,4.5
539,540,Ahumadas Grill & BBQ,5.0,16.0,http://www.ahumadasgrillbbq.com/,19.432684,-99.13325,Mexicana,,,,
540,541,Em Restaurante,4.5,41.0,http://emrestaurante.com,19.371422,-99.150345,"Francesa, Mexicana, Japonesa, Estadounidense, Internacional, Nativo estadounidense",4.5,4.5,4.0,
541,542,Frutos Prohibidos Roma,5.0,17.0,http://frutosprohibidos.com/,19.41749,-99.15961,Mexicana,,,,
542,543,Cascabel,4.5,42.0,http://www.restaurantecascabel.com/,19.363918,-99.25976,"Mexicana, Latina, Española",4.5,4.5,4.5,
543,544,La Cuchara De San Sebastián,4.5,50.0,http://loscanarios.com.mx/la-cuchara-de-san-sebastian/,19.424923,-99.172806,Española,4.5,5.0,4.5,
544,545,La Gruta,4.0,131.0,http://lagruta.mx,19.2223,-99.00045,Mexicana,4.0,3.5,3.5,
545,546,Puntarena Centro Histórico,4.0,95.0,http://www.puntarena.mx,19.432789,-99.13615,"Mexicana, Mariscos",4.0,4.5,4.0,
546,547,Parker and Lenox,4.0,101.0,http://parkerandlenox.live/,19.43095,-99.15638,"Estadounidense, Bar, Internacional, Pub",4.0,4.0,3.5,
547,548,Barro Negro,4.0,197.0,http://www.barronegro.mx/,19.424173,-99.16907,"Mexicana, Latina",4.0,4.0,4.0,4.0
548,549,King Cole Bar,4.5,86.0,http://www.marriott.com/en-us/hotels/mexxr-the-st-regis-mexico-city/dining/,19.425158,-99.17198,"Bar, Internacional, Contemporánea, Bar de vinos, Comedores",4.5,4.5,4.5,
549,550,Ristorante INTERVALLO,4.5,60.0,http://ristoranteintervallo.com/,19.36428,-99.18777,"Italiana, Pizzería",4.5,4.5,4.5,
550,551,Texas Ribs Lomas Estrella,4.0,107.0,http://www.texasribs.com.mx/,19.322117,-99.09415,Estadounidense,,,,
551,552,El Cuatro 20,4.0,73.0,http://www.facebook.com/www.el4veinte.com.mx,19.43483,-99.13596,"Mexicana, Latina, Bar, Pub",4.0,4.0,4.0,4.0
552,553,Don Asado,4.0,111.0,http://donasado.com.mx,19.435404,-99.18841,"Churrasquería, Latina",4.0,4.0,4.0,
553,554,Cantinetta Del Becco,4.0,163.0,http://www.cantinettadelbecco.com/,19.36466,-99.259,"Italiana, Bar de vinos",4.0,4.5,3.5,4.5
554,555,Negroni Artz Pedregal,4.0,87.0,http://www.negroni.mx,19.313887,-99.21905,"Italiana, Europea, Mediterránea",4.5,4.5,4.0,
555,556,Kuh,4.0,82.0,http://hkuh.mx/,19.346153,-99.190735,"Suiza, Europea",4.5,4.5,4.0,4.5
556,557,Licorería Limantour,4.0,77.0,http://www.limantour.tv,19.430393,-99.19707,Bar,3.5,3.5,3.5,
557,558,Licoreria Limantour,4.0,206.0,http://limantour.tv,19.418367,-99.15945,Bar,4.0,4.0,3.5,4.0
558,559,Barrio Sur,4.0,82.0,http://www.barriosur.mx,19.348808,-99.198105,"Parrilla, Bar de vinos",4.5,4.5,4.0,
559,560,Texas Ribs La Cúspide,4.0,96.0,http://www.texasribs.com.mx/,19.44736,-99.21389,"Estadounidense, Parrillada",4.0,4.0,4.0,
560,561,Castizo,4.5,34.0,https://www.facebook.com/castizomx/,19.40787,-99.16966,"Española, Bar, Mariscos, Mediterránea, Pub, Bar de vinos",4.5,5.0,4.5,
561,562,Patagonia,4.0,219.0,http://www.parrillapatagonia.com,19.409346,-99.173584,"Parrilla, Churrasquería, Latina, Argentina",4.0,4.0,4.0,4.5
562,563,Cantina la Numero 1,4.0,111.0,http://lanumerouno.com.mx,19.418575,-99.154045,"Mexicana, Española",4.0,4.0,3.5,4.0
563,564,La Bipo,4.0,145.0,https://www.facebook.com/labipo.coyoacan,19.352228,-99.16258,"Mexicana, Latina, Bar, Pub",4.0,3.5,4.0,4.0
564,565,Cantina 20 | Antara,4.0,116.0,http://www.cantina20.com,19.439108,-99.2034,"Mexicana, Bar, Bar de vinos, Latina, Contemporánea",4.0,3.5,4.0,
565,566,El Jardín De Anatolia,4.5,26.0,http://www.instagram.com/eljardindeanatolia/,19.358505,-99.16999,Turca,5.0,4.5,4.5,
566,567,Taqueria El Abanico,5.0,26.0,http://taqueriaelabanico.com/,19.416086,-99.14354,"Mexicana, Latina, Española",5.0,4.5,4.5,
567,568,Osteria 8,4.5,96.0,http://osteria8.com.mx,19.418995,-99.17531,"Italiana, Pizzería",4.5,4.5,4.5,4.0
568,569,Aquarelle Bistro,4.0,74.0,http://www.aquarelle.mx,19.3527,-99.16355,"Francesa, Mexicana",4.0,4.0,4.0,
569,570,La Bodega,4.0,104.0,http://www.labodega.rest,19.415268,-99.16716,"Bar, Mexicana",4.0,4.0,4.0,4.0
570,571,Bellinghausen - Londres,4.0,82.0,http://www.bellinghausen.mx,19.426346,-99.16308,Internacional,4.0,4.5,4.0,4.0
571,572,The Palm,4.0,108.0,http://www.thepalm.com.mx/,19.35862,-99.27783,"Estadounidense, Churrasquería",4.0,4.5,4.0,
572,573,Bistro Arlequin,4.0,206.0,http://www.facebook.com/BistrotArlequin,19.428707,-99.17182,"Francesa, Europea",4.5,3.5,4.0,4.0
573,574,La Buena Fe,4.0,120.0,https://www.facebook.com/la-buena-fe-115726081772670/,19.349146,-99.19577,"Mexicana, Internacional, Española",4.5,4.0,4.0,4.0
574,575,Bósforo,4.5,45.0,http://www.facebook.com/pages/B%C3%B3sforo-Mezcaleria/280170022102134,19.433275,-99.14502,"Mexicana, Bar",4.5,4.0,4.0,
575,576,El Farolito,4.0,164.0,http://www.taqueriaselfarolito.com.mx,19.41001,-99.17951,"Mexicana, Latina, Comida rápida",4.0,4.0,4.0,3.0
576,577,Il Ritrovo Italian Restaurant,4.5,55.0,http://www.facebook.com/ilritrovodf,19.427889,-99.16391,"Italiana, Pizzería",4.0,4.5,4.0,
577,578,El Rey Del Pavo,4.0,147.0,http://www.elreydelpavo.com.mx,19.432789,-99.13531,"Mexicana, Internacional",4.0,4.0,3.5,
578,579,Gaucho Grill,4.0,95.0,http://gauchogrill.mx,19.429628,-99.19222,"Churrasquería, Parrillada, Delicatessen, Argentina",4.5,4.0,4.0,4.0
579,580,Taqueria Arandas,4.5,52.0,http://www.facebook.com/Taqueria-Arandas-108528177467641/,19.434425,-99.13563,"Mexicana, Latina, Española",4.5,4.5,4.5,
580,581,San Giorgio Pizzería Polanco,5.0,17.0,http://www.order.store/store/san-giorgio-pizzeria/lrxplpjaswoqx8chyks_va,19.430534,-99.18115,"Italiana, Del sur italiano",,,,
581,582,Jaso Restaurant,4.0,329.0,http://www.jasorestaurant.com.mx,19.432047,-99.190506,Internacional,4.5,4.0,3.5,4.5
582,583,Casa Licha,4.5,52.0,http://www.CasaLichaPozole.com,19.365469,-99.135994,,5.0,4.5,4.5,4.0
583,584,"BFF, Burgers, Fondue & Fries",5.0,18.0,,19.409782,-99.17446,"Mexicana, Comida rápida",,,,
584,585,Enricos Trattoria,4.5,23.0,http://www.enricos.com.mx/,19.42785,-99.15651,"Italiana, Bar de vinos",,,,
585,586,Cantina Restaurante La Ribera,4.0,79.0,http://www.cantinalaribera.com.mx,19.418707,-99.15414,Mexicana,4.0,4.5,4.0,
586,587,Taqueria Selene,4.5,38.0,http://www.taqueria-selene.com,19.427114,-99.177574,"Mexicana, Latina, Comida rápida",4.5,4.5,4.5,3.0
587,588,Yug,4.0,113.0,http://lovegetariano.com,19.425833,-99.16861,"Mexicana, Española",4.5,4.0,4.5,3.5
588,589,Las Tapas de San Juan,4.5,42.0,http://lajerseydesanjuan.blogspot.mx/,19.42991,-99.144585,Española,4.5,4.5,4.5,
589,590,Caldos Riesi,4.5,42.0,http://www.caldosriesi.com/,19.438454,-99.20824,"Mexicana, Café, Saludable, Sopas, De Campania, Del sur italiano",4.0,4.0,4.0,3.5
590,591,Spuntino,4.0,205.0,http://www.grupomalazzo.com/spuntino.html,19.42992,-99.196175,"Churrasquería, Latina, Argentina",4.0,4.0,3.5,4.0
591,592,Los Canarios Odeon,4.0,140.0,http://grupoloscanarios.com/los-canarios-odeon-antara/,19.438963,-99.20322,Mexicana,4.0,4.0,4.0,4.0
592,593,Villa Casona,4.5,60.0,http://www.villacasona.mx,19.386353,-99.18627,Mexicana,4.5,4.0,4.5,3.5
593,594,El Ocho,3.5,179.0,http://www.elocho.mx,19.410398,-99.16996,"Bar, Internacional",3.0,3.0,3.0,
594,595,El Carmen Deli,4.0,132.0,http://www.facebook.com/ElCarmenDeli,19.344824,-99.19165,"Mexicana, Bar, Internacional, Pub, Fusión, Neozelandesa",4.0,4.0,4.0,
595,596,"Restaurante Escribanos, Plaza Manuel Tolsá.",4.5,75.0,http://www.facebook.com/takundalini/,19.436047,-99.13994,"Mexicana, Latina",4.5,4.5,4.0,
596,597,Tokyo Rose,4.5,35.0,http://maps.apple.com/place?address=Calle%20Xola%201604%2C%20Narvarte%20Oriente%2C%2003020%20Ciudad%20de%20M\xc3\xa9xico%2C%20DF%2C%20M\xc3\xa9xico&auid=9603476834964602695&ll=19.395725045176412%2C-99.15081471204758&q=Tokyo%20Rose,19.409752,-99.17462,"Japonesa, Sushi",4.0,3.5,4.0,
597,598,El Caminero,4.5,57.0,http://www.tacoselcaminero.com/,19.428928,-99.167885,"Mexicana, Latina",4.5,4.5,5.0,
598,599,Nido,4.5,41.0,https://www.facebook.com/nidorestaurantesg/,19.41285,-99.16753,Mexicana,5.0,4.5,5.0,
599,600,Hotel Carlota,4.5,48.0,http://www.hotelcarlota.com.mx/restaurante,19.43057,-99.16357,Latina,4.5,4.5,4.0,
600,601,Tezka,4.5,109.0,http://hotelroyalreforma.com/,19.42383,-99.16432,"Europea, Española",4.5,4.0,4.0,4.0
601,602,Fisher's,4.0,201.0,http://www.fishers.com.mx/,19.432816,-99.18517,"Mexicana, Mariscos, Fusión",4.0,4.0,3.5,
602,603,La Strega,4.0,257.0,http://lastrega.mx/,19.395308,-99.1725,"Mediterránea, Internacional, Italiana",4.0,4.0,3.5,4.0
603,604,Olive Garden,4.0,249.0,http://www.olivegardenmexico.com.mx/,19.428535,-99.16325,Italiana,4.0,4.0,4.0,4.0
604,605,Fonda Argentina Isabel la Catolica,4.5,53.0,,19.378588,-99.144066,Argentina,4.5,4.5,4.5,
605,606,Restaurant La Mansión Insurgentes,4.0,103.0,http://www.lamansion.com.mx,19.390598,-99.173164,Churrasquería,4.0,4.0,4.0,
606,607,Cabuya Rooftop,5.0,13.0,,19.407854,-99.168144,"Mariscos, Mexicana, Internacional, Mediterránea, Contemporánea",,,,
607,608,Canto de Sirenas,4.0,110.0,http://elcantodesirenas.com/,19.439348,-99.16854,"Mexicana, Mariscos",4.5,4.5,4.5,4.0
608,609,Maíz Tinto,5.0,19.0,http://www.maiztinto.com/,19.419416,-99.16217,"Mexicana, Mariscos, Internacional, Parrilla, Bar de vinos",,,,
609,610,Prosecco Santa Fe,4.0,107.0,http://www.prosecco.mx/,19.361513,-99.27583,Italiana,4.5,4.0,4.0,
610,611,Hosteria de la Selva Negra,4.5,47.0,http://hosteriadelaselvanegra.com,19.438524,-99.212524,"Alemana, Mexicana, Cervecería, Bar, Pub, Bar de vinos",4.5,4.0,4.5,
611,612,Pan Comido,4.0,44.0,http://www.elpancomido.com,19.4173,-99.16229,"Cervecería, Café, Internacional, Pub, Saludable, Sopas",4.0,4.0,4.0,
612,613,Fisher's Centro,4.0,139.0,http://www.fishers.com.mx/,19.430132,-99.134544,"Mexicana, Mariscos",4.0,4.0,3.5,
613,614,Debbie & Peponne,4.0,154.0,http://peponne.com.mx,19.364681,-99.25969,"Delicatessen, Café, Mexicana",4.0,4.0,3.5,4.0
614,615,La Poblanita de Tacubaya,4.0,168.0,http://www.poblanita.com/index.html,19.407219,-99.18523,"Mexicana, Latina",4.5,4.0,4.5,4.0
615,616,Bob Marlin,5.0,15.0,http://bobmarlin.mx/,19.41408,-99.1711,Mariscos,,,,
616,617,La Corriente Cevicheria Nais,4.5,37.0,http://www.pictame.com/user/lacorrientenais,19.422777,-99.16076,"Mexicana, Mariscos",4.5,4.5,4.5,
617,618,La Oveja Negra,4.5,54.0,,19.451683,-99.15945,"Mexicana, Parrillada, Española",4.5,4.0,4.0,3.5
618,619,Nieve de Olla,5.0,15.0,http://nievedeolla.com,19.40899,-99.17691,"Mexicana, Café, Helados con fruta, Saludable",,,,
619,620,Bellaria Mexico,4.0,184.0,https://www.bellaria.mx/,19.360178,-99.28005,"Italiana, Pizzería, Mariscos, Mediterránea",4.5,4.0,4.0,4.0
620,621,Los Bisquets Bisquets Obregon,4.0,197.0,http://www.lbbo.com.mx/,19.28893,-99.16633,Mexicana,4.0,3.5,4.0,3.5
621,622,Aromas,4.0,136.0,https://www.facebook.com/Aromascotidianos/,19.418394,-99.21541,,4.0,4.0,3.5,
622,623,Moshi Moshi Delta,4.5,28.0,http://www.moshimoshi.mx,19.402689,-99.15461,"Japonesa, Sushi, Asiática",,,,
623,624,Fiesole - San Angel,4.0,136.0,http://fiesole.com.mx,19.35212,-99.19036,"Italiana, Pizzería",4.0,4.0,4.0,4.5
624,625,NOM Polanco,4.5,28.0,http://www.restaurantenom.com,19.43206,-99.19553,,5.0,5.0,4.5,
625,626,Restaurante Sonia,4.5,26.0,http://restaurantesonia.com.mx/,19.4248,-99.16938,"Mexicana, Internacional, Contemporánea",5.0,5.0,4.5,
626,627,La Aceituna,4.0,91.0,https://www.facebook.com/pages/La-Aceituna/105325706258209,19.428736,-99.193954,"Europea, Española, Bar",4.0,4.5,4.0,4.5
627,628,FOREVER VEGANO,4.0,144.0,http://www.facebook.com/forevervegano?fref=ts,19.417334,-99.15687,"Contemporánea, Saludable, Mexicana",4.5,4.0,4.0,
628,629,La Casa Del Pastor Mundo E,4.5,25.0,http://www.lacasadelpastor.com.mx/,19.524984,-99.22734,Mexicana,,,,
629,630,Brassi Restaurant Polanquito,3.5,317.0,http://www.brassi.com.mx,19.430456,-99.19735,Mediterránea,3.5,3.5,3.5,4.5
630,631,Specia,4.5,107.0,http://www.specia.mx/,19.410782,-99.16791,Europea,4.5,4.5,4.0,4.0
631,632,Comedor Mata Cantina,4.5,27.0,https://www.facebook.com/cantinamata/,19.434198,-99.139366,"Mexicana, Cervecería, Pub, Gastropub, Comida de calle",,,,
632,633,Urban Bakehouse,5.0,14.0,,19.419752,-99.17528,"Cervecería, Café, Española, Delicatessen, Pub",,,,
633,634,Galia Chef,4.0,81.0,https://galiachef.com/bistrots/,19.418419,-99.16,"Francesa, Bar de vinos, Europea",4.0,4.0,4.0,
634,635,La Vineria,4.5,47.0,,19.413088,-99.17488,Europea,4.5,4.5,4.5,4.0
635,636,Pali Pali Santa Fé,5.0,14.0,http://palipali.mx/,19.36017,-99.27837,"Mexicana, Latina, Comida rápida, Española, Saludable",,,,
636,637,La Buena Birria Mx,5.0,14.0,,19.409859,-99.174484,Mexicana,,,,
637,638,A La Parrilla,5.0,18.0,,19.42621,-99.17025,,,,,
638,639,Aurora,4.0,69.0,http://www.facebook.com/aurora.roma.3,19.417938,-99.16039,Italiana,4.0,4.0,4.0,
639,640,El Gran León de Oro,4.0,114.0,http://www.elgranleondeoro.com.mx/contacto,19.365108,-99.1828,"Mexicana, Internacional",4.5,4.5,4.0,4.0
640,641,Azul y Oro,3.5,215.0,http://www.azul.rest/,19.313728,-99.185005,"Mexicana, Latina",3.5,3.5,3.0,3.5
641,642,El Cabrito Astur,4.5,39.0,http://www.facebook.com/El-Cabrito-Astur-SA-de-CV-218607884961938/,19.43185,-99.13534,,4.5,5.0,4.5,
642,643,Deigo,4.0,166.0,http://www.deigo.mx,19.377966,-99.16169,"Japonesa, Sushi, Asiática",4.5,4.0,3.5,4.0
643,644,Casa D'Italia,4.0,161.0,http://www.casaditalia.mx,19.418098,-99.1754,"Italiana, Mediterránea, Europea",4.5,4.0,4.0,3.5
644,645,Casa Fran,4.5,66.0,http://www.casafran.mx/,19.430483,-99.19973,"Española, Contemporánea, Europea",4.5,4.0,4.0,
645,646,Baia Café,5.0,13.0,http://www.baiacafe.com,19.428154,-99.19272,"Mexicana, Café, Delicatessen, Saludable",,,,
646,647,Alaia,4.0,117.0,http://www.alaia.com.mx,19.33327,-99.204285,"Mediterránea, Española",4.0,3.5,3.5,3.5
647,648,Kolobok Napoles Restaurante ruso,5.0,19.0,http://www.kolobok.com.mx/,19.390936,-99.175476,"Europea, Rusa, De Europa del Este, Ucraniana",5.0,5.0,5.0,
648,649,Debarbas Bebedero Gourmet,4.5,36.0,http://www.debarbas.com,19.391315,-99.177055,"Cervecería, Mexicana, Bar, Mediterránea, Pub",4.5,4.5,4.0,
649,650,Restaurante Los Sifones,4.5,42.0,http://www.facebook.com/pages/Los-Sifones/120164304725455,19.347183,-99.1501,"Mexicana, Latina, Española",4.5,4.5,4.5,
650,651,Los Hornillos,4.5,50.0,http://www.taquerialoshornillos.com/,19.393484,-99.15012,Mexicana,4.5,4.5,4.5,4.5
651,652,El Huequito,4.0,86.0,http://www.elhuequito.com.mx,19.392284,-99.17926,Mexicana,4.0,4.0,4.0,
652,653,Mora Mora Roma,5.0,13.0,,19.419977,-99.172386,Internacional,,,,
653,654,Nerea,5.0,19.0,http://www.nerea.com.mx,19.409573,-99.17549,"Mexicana, Mariscos, Latina, Mediterránea",,,,
654,655,Los Callejeros,5.0,19.0,https://www.facebook.com/Los-Callejeros-762387270565496/,19.43475,-99.13981,"Mexicana, Comida rápida",5.0,5.0,5.0,
655,656,Decrab Prado Norte,4.0,160.0,http://decrab.com.mx/,19.427664,-99.21064,Mariscos,4.5,4.0,3.5,4.0
656,657,Friends,4.0,103.0,http://www.50friends.mx/reforma.html,19.425835,-99.16758,"Italiana, Pizzería",4.0,4.0,4.0,
657,658,Mezcaleria Mundana,4.5,34.0,http://facebook.com/mezcaleriamundana,19.436283,-99.146355,"Mexicana, Latina, Española",,4.0,4.0,
658,659,Mezzo Mezzo,4.5,53.0,http://panizzeria-mezzo-mezzo.negocio.site,19.431112,-99.16244,"Italiana, Pizzería",4.5,4.0,4.5,3.5
659,660,Paris 16 Cafe,4.5,33.0,http://www.facebook.com/Paris16Bistro/,19.425936,-99.168945,Mexicana,5.0,5.0,5.0,
660,661,Mikado,4.0,91.0,http://www.facebook.com/pages/Restaurante-Mikado/174178462599858,19.426645,-99.169136,"Japonesa, Sushi, Asiática",4.0,3.5,4.0,3.5
661,662,Rouge Bohème,4.5,67.0,http://www.facebook.com/rougeboheme/,19.42712,-99.163635,Francesa,4.5,5.0,4.5,4.5
662,663,La Cervecería de Barrio Alameda,3.5,152.0,http://lacerveceriadebarrio.com.mx,19.434792,-99.145836,"Mexicana, Latina, Mariscos, Bar",3.5,4.0,3.5,
663,664,Alfredo Di Roma Trattoria,4.0,93.0,http://www.alfredodiroma.rest/alfredo-trattoria/,19.439825,-99.200775,Italiana,4.5,4.0,4.0,
664,665,El Faraon,4.0,57.0,https://www.facebook.com/elfaraontaquerias,19.418936,-99.16754,"Mexicana, Latina",4.5,4.0,4.0,
665,666,Señora Tanaka Masaryk,4.5,22.0,http://sratanaka.com,19.431639,-99.188614,"Japonesa, Fusión japonesa",4.5,5.0,4.5,
666,667,Cochinita Country,4.5,54.0,http://www.cochinitacountry.com,19.380741,-99.157684,Mexicana,4.5,4.5,4.5,
667,668,Montejo,4.0,71.0,http://lamontejo.com/,19.404856,-99.17186,"Mexicana, Bar, Latina, Española",4.5,4.5,4.5,4.5
668,669,Capri,4.0,115.0,http://www.capri1950.com/,19.42904,-99.21119,"Italiana, Europea, Mediterránea, Parrilla, Bar de vinos",4.0,4.0,3.5,4.0
669,670,Pata Negra Condesa,4.0,218.0,http://www.patanegra.com.mx,19.413479,-99.17214,"Bar, Pub",3.5,3.5,3.5,4.0
670,671,Nautilus desde 1955,4.5,51.0,http://nautilus.com.mx,19.431622,-99.19694,"Mariscos, Mexicana",4.5,4.5,4.0,3.5
671,672,Casa Club del Académico,4.0,159.0,http://www.restaurantecasaclubdelacademico.com.mx,19.333977,-99.19688,"Mexicana, Internacional",4.0,3.5,4.0,4.5
672,673,Las Tinajas,4.5,47.0,http://las-tinajas.com/,19.42903,-99.17311,"Española, Bar, Pub, Bar de vinos",4.5,4.5,5.0,
673,674,Tacos Don Juan,4.5,28.0,http://www.facebook.com/TacosDonJuan82,19.41403,-99.17377,"Mexicana, Latina, Comida rápida, Española",4.5,4.5,5.0,
674,675,Wallace Whisky Bar,4.0,84.0,https://www.facebook.com/WallaceWhiskyBar/,19.412748,-99.17279,"Bar, Internacional, Pub",4.0,4.0,4.0,4.5
675,676,El Chanclas,4.0,96.0,,19.430151,-99.192894,Española,4.0,4.0,3.5,
676,677,Yakumanka,4.0,105.0,http://www.yakumanka.com,19.416414,-99.16073,"Peruana, Latina, Mariscos",4.5,4.0,4.0,
677,678,Magro Bistro,5.0,14.0,https://www.facebook.com/magrobistro/,19.342909,-99.15568,"Mexicana, Café, Comida rápida, Internacional, Argentina, Sudamericana",,,,
678,679,Wa Teppan & Sushi Bar - Santa Fe,4.0,61.0,http://wateppan.com,19.358707,-99.277176,"Japonesa, Sushi",4.0,4.0,4.0,4.0
679,680,El Turix Polanco,4.0,148.0,http://www.facebook.com/pages/Taqueria%20%22El%20Turix%22/140230616023897/,19.431446,-99.20126,"Mexicana, Latina",4.0,3.0,4.0,
680,681,Lima 700 Cocina Peruana,4.0,91.0,http://www.lima700.com/,19.414928,-99.16178,"Peruana, Latina, Mariscos",4.5,4.5,4.5,
681,682,Casa de Castilla,4.0,99.0,http://grupocastellano.com.mx/casa-de-castilla/,19.353497,-99.190186,"Española, Europea",4.0,4.0,3.5,4.0
682,683,La casa de la yeya roma,5.0,21.0,https://www.layeya.com/sucursales,19.414644,-99.16358,"Mexicana, Café",,,,
683,684,Frutos Prohibidos Leibnitz,5.0,14.0,http://frutosprohibidos.com/,19.42931,-99.17837,,,,,
684,685,Pozole de Moctezuma,4.5,33.0,,19.443052,-99.14009,Mexicana,5.0,4.5,4.5,
685,686,Biwon,4.0,74.0,,19.425388,-99.16682,"Parrillada, Asiática, Coreana",4.0,4.5,4.0,3.0
686,687,Pali Pali San Ángel,5.0,13.0,http://www.palipali.mx/,19.343967,-99.200195,"Mexicana, Latina, Comida rápida, Española",,,,
687,688,El Rincon Del Periban,4.5,56.0,https://www.facebook.com/pages/El-Rincon-Del-Periban/234055893298358,19.28651,-99.23972,Mexicana,4.5,4.5,4.5,4.5
688,689,Campobaja,4.0,81.0,http://campobaja.com/,19.420221,-99.15833,"Mexicana, Mariscos",4.5,4.5,4.0,
689,690,Bracco,5.0,14.0,http://braccorestaurante.com,19.414991,-99.174706,"Mexicana, Contemporánea, Comedores, Cervecería, Pub, Bar de vinos",,,,
690,691,Mi Gusto Es,4.0,69.0,http://www.migustoes.com.mx/,19.3019,-99.1961,"Mariscos, Mexicana",3.5,4.0,3.5,
691,692,Giorella Ristorante,5.0,21.0,https://www.facebook.com/giorellaristorante/,19.40009,-99.1592,"Italiana, Pizzería",,,,
692,693,Cafe de Bellas Artes,4.0,98.0,http://www.palacio.bellasartes.gob.mx/servcios/clt.html,19.43139,-99.15184,"Café, Internacional",3.5,3.5,3.0,4.0
693,694,Cervecería Kas,5.0,12.0,http://instagram.com/cerveceriakas,19.34594,-99.17768,"Cervecería, Bar, Contemporánea, Pub",,,,
694,695,Tizne Tacomotora,4.5,26.0,https://www.facebook.com/TizneTacomotora/,19.38712,-99.17133,Mexicana,5.0,5.0,4.5,
695,696,Chilpa,4.5,53.0,http://chilpa.mx/index.html,19.408588,-99.16982,"Mexicana, Española",4.5,5.0,4.5,
696,697,El Pescadito,4.0,60.0,https://www.facebook.com/pages/El-Pescadito-del-Valle/592345807481656,19.39598,-99.16994,"Mexicana, Mariscos",4.5,4.0,4.0,
697,698,Pixza,4.5,44.0,http://pixza.mx/,19.423767,-99.16528,"Mexicana, Pizzería, Comida rápida",4.5,4.5,4.5,
698,699,El Vilsito,4.5,53.0,http://www.facebook.com/VilsitoDiamante/,19.389381,-99.15292,"Mexicana, Latina",4.5,4.0,4.5,
699,700,Kosho,5.0,14.0,https://www.kosho.mx/,19.41788,-99.160706,"Mediterránea, De Asia central",,,,
700,701,Galea,4.5,33.0,http://galea.mx,19.42087,-99.16703,"Italiana, Mediterránea, Contemporánea, Bar de vinos",3.5,4.5,3.0,
701,702,Burger Bar,5.0,18.0,,19.416718,-99.17799,"Comida rápida, Estadounidense",5.0,5.0,5.0,
702,703,La Casa de Toño,4.0,60.0,http://www.plazalindavista.mx,19.49098,-99.13382,Mexicana,4.5,4.5,4.5,
703,704,La taberna del chanclas,4.0,149.0,http://www.latabernadelchanclas.com,19.40729,-99.172066,"Mexicana, Peruana, Internacional, Fusión",4.0,4.0,3.5,4.0
704,705,Cuchilleros,4.0,71.0,http://www.cuchilleroscantina.com.mx,19.433422,-99.15701,Mexicana,4.0,4.0,3.5,4.5
705,706,Gin Chan,5.0,20.0,http://www.ginchanmx.com,19.41723,-99.15818,"Japonesa, Sushi, Comida de calle, Asiática",,,,
706,707,Vapiano Reforma,4.0,183.0,http://mx.vapiano.com/es/inicio/,19.429058,-99.16309,"Italiana, Pizzería, Mediterránea, Europea",4.0,4.0,4.0,4.5
707,708,PF Chang's,4.0,62.0,http://www.pfchangsmexico.com.mx/patio-universidad/,19.365936,-99.16721,"Asiática, China",4.5,4.5,4.0,
708,709,Mexico Viejo Restaurant Bar,4.0,87.0,https://www.facebook.com/pages/Restaurant-Mexico-Viejo-En-El-Zocalo-En-Mexico-DF/311710652207334,19.435106,-99.13392,"Mexicana, Latina",4.0,4.5,4.0,4.0
709,710,La Cerveceria de Barrio Rio Lerma,4.0,129.0,http://www.lacerveceria.com.mx/site/,19.427881,-99.170135,"Mexicana, Latina, Bar",4.0,4.0,3.5,
710,711,Los Bisquets de Obregon,4.0,116.0,http://www.lbbo.com.mx/unidades/lbboContactoGeneral.php?estado=DF&delegacion=CUAUHTEMOC,19.41871,-99.1574,"Mexicana, Latina, Café",4.0,4.0,4.0,4.0
711,712,Casa Mila,4.5,30.0,https://www.facebook.com/casa-mila-106470868173311/,19.41414,-99.16019,"Italiana, Mexicana, Libanesa, Mediterránea, Saludable",5.0,5.0,5.0,
712,713,Boca Roja,4.5,19.0,http://www.instagram.com/bocaroja_mx/,19.425367,-99.15731,"Europea, Italiana, Internacional, Mediterránea",5.0,5.0,5.0,
713,714,Lucrezio Di Pasta e Vino,4.0,55.0,http://www.facebook.com/lucreziodipastaevino/,19.332148,-99.20836,Italiana,4.5,4.5,4.0,
714,715,Mercado San Camilito,4.0,55.0,"http://www.facebook.com/pages/Mercado%20De%20San%20Camilito,%20Plaza%20Garibaldi/418036678235165/",19.44038,-99.1393,Mexicana,3.5,3.5,4.0,3.0
715,716,Centro Castellano,4.0,85.0,http://grupocastellano.com.mx/camino-real/,19.42832,-99.17876,"Mediterránea, Europea, Española",4.0,4.0,3.5,
716,717,Mesón del Cid,4.0,90.0,http://www.mesondelcid.com.mx,19.432644,-99.14866,Española,4.0,4.0,3.5,4.0
717,718,La Vienet,4.0,81.0,http://www.facebook.com/pages/La-Vienet-coyoacan/127451010727665,19.356869,-99.16172,Mexicana,4.0,4.0,4.5,3.5
718,719,Los Bisquets De Obregon,4.0,71.0,http://bisquetsobregon.com/,19.434393,-99.152016,Mexicana,3.5,3.5,3.5,
719,720,Barrio Tinto,4.0,61.0,http://www.barriotinto.com.mx,19.304731,-99.19111,"Argentina, Sudamericana",4.0,4.5,4.0,
720,721,Cabrera 7,3.5,232.0,http://www.facebook.com/cabrera7,19.416517,-99.15944,"Mexicana, Latina, Pub",4.0,4.0,3.5,4.5
721,722,El Bajio,4.0,63.0,http://www.facebook.com/RestauranteElBajio.PatioUniversidad,19.36586,-99.16709,Mexicana,4.5,4.5,4.5,
722,723,Guadiana - Satelite,4.0,84.0,http://www.guadiana.com.mx/,19.505114,-99.23731,"Mexicana, Contemporánea",4.0,4.0,3.5,4.0
723,724,Vips,4.5,38.0,http://www.vips.com.mx,19.187084,-96.12307,"Mexicana, Café, Comida rápida",,,,
724,725,Tacos Manolo,4.0,49.0,https://www.facebook.com/tacosmanolo1305/,19.390854,-99.156944,"Mexicana, Comida rápida",4.5,4.5,5.0,
725,726,Los Arcos,4.0,75.0,http://www.restaurantlosarcos.com/,19.370678,-99.17997,"Mariscos, Internacional, Saludable, Mexicana, Latina, Española",4.5,4.5,4.0,
726,727,Waldos,5.0,17.0,http://www.eatwaldos.com,19.430681,-99.19626,"Comida rápida, Estadounidense",5.0,5.0,5.0,
727,728,Fonda Argentina,4.0,78.0,http://www.fondaargentina.com/,19.435858,-99.15233,"Churrasquería, Latina, Argentina, Mexicana",3.5,4.0,3.5,3.5
728,729,Barbacoa de Santiago,4.0,72.0,http://www.barbacoadesantiago.com,19.386076,-99.17559,Mexicana,4.0,4.0,4.0,
729,730,Migrante,4.5,21.0,http://migrante-roma.com,19.411903,-99.16508,Internacional,,,,
730,731,The Comrade,4.0,82.0,http://www.thecomrade.mx/carta.html,19.430342,-99.198784,"Internacional, Bar, Pub",4.5,4.0,4.0,
731,732,El Corazón Del Mar Roma,5.0,12.0,http://www.elcorazondelmar.mx/,19.417889,-99.16782,"Mexicana, Mariscos, Mediterránea, Contemporánea",5.0,5.0,5.0,
732,733,Fortunata Cafe,4.5,28.0,,19.346794,-99.16036,"Latina, Mediterránea, Española",4.5,4.5,4.5,
733,734,Bravissimo Restaurante,5.0,23.0,http://www.bravissimo.com.mx,19.352718,-99.163994,"Italiana, Pizzería, Mediterránea, Europea",4.5,5.0,4.5,
734,735,The View,4.5,54.0,http://www.theview.com.mx/view/home.html,19.415375,-99.18491,"Internacional, Británica",5.0,5.0,4.0,
735,736,Konohanatei,4.5,36.0,https://www.facebook.com/Konohanatei,19.305681,-99.20281,"Japonesa, Asiática, Sushi",5.0,4.0,5.0,
736,737,Franca Bistro,4.0,56.0,http://www.facebook.com/PizzaFranca,19.332544,-99.036514,,4.0,4.0,4.0,4.0
737,738,Vapiano Samara,4.0,138.0,http://mx.vapiano.com/es/home/,19.367392,-99.25929,Italiana,4.0,4.0,3.5,
738,739,Saks Lomas,4.5,30.0,https://www.saks.com.mx/saks-lomas,19.393724,-99.23935,"Mexicana, Internacional, Contemporánea, Fusión",,,,
739,740,Embers Steakhouse,4.0,60.0,http://www.embers.com.mx,19.438429,-99.20235,Estadounidense,4.5,4.0,4.0,
740,741,Hiyoko Yakitori Ya,4.5,36.0,https://www.facebook.com/hiyokoyakitoridf/,19.429613,-99.16966,Japonesa,4.5,4.5,4.0,
741,742,Público Comedor,4.5,34.0,http://www.workn.co/moliere.php,19.43124,-99.2023,Mexicana,4.5,4.5,4.5,
742,743,Greenway Restaurante,4.5,58.0,http://www.greenwaycafe.com.mx,19.435556,-99.190056,"Mexicana, Café, Internacional",4.5,4.5,4.5,5.0
743,744,Balmori Roof Top,4.0,117.0,http://www.facebook.com/BalmoriRoof,19.41571,-99.16072,"Bar, Pizzería, Internacional, Fusión",4.0,4.0,4.0,
744,745,Kazu’s Kitchen,4.5,42.0,http://kazu.mx,19.432205,-99.19013,"Japonesa, Sushi, Asiática",4.5,4.0,4.5,
745,746,Kolobok MGPP Restaurante Ruso,5.0,19.0,http://www.kolobok.com.mx,19.440174,-99.18427,"Rusa, De Europa del Este, De Europa Central, Ucraniana",5.0,4.5,4.5,
746,747,Aperol Restaurante,5.0,15.0,,19.412306,-99.17362,"Bar, Internacional, Contemporánea, Pub",,,,
747,748,Pulqueria insurgentes,4.5,44.0,https://www.facebook.com/pulqueriainsurgentes,19.41915,-99.1641,"Mexicana, Bar, Española, Pub",3.5,4.0,4.0,5.0
748,749,El Candelero,4.0,98.0,http://www.elcandelerorest.com.mx/,19.372917,-99.17981,"Mexicana, Latina",4.0,4.0,3.5,4.5
749,750,Restaurant Árabe Miguel,4.0,42.0,http://arabemiguel.com/,19.412773,-99.156975,"Libanesa, Del Medio Oriente, Mediterránea, Turca, Árabe",4.0,4.0,4.0,
750,751,La Destileria - Reforma,4.0,137.0,http://ladestileria.com.mx,19.429203,-99.16213,"Mexicana, Latina, Bar",4.0,4.0,3.5,4.0
751,752,Mercado Independencia,4.0,38.0,http://mercadoindependencia.mx/,19.433298,-99.1442,"Mexicana, Japonesa, Comida rápida",4.0,3.5,4.0,
752,753,El Regreso del Valle,4.5,60.0,http://www.elregreso.com.mx/,19.373005,-99.175354,"Mexicana, Latina, Española",4.0,4.0,4.5,4.5
753,754,Las Mercedes,4.0,60.0,http://lasmercedes.mx,19.429564,-99.17847,Mexicana,4.5,4.0,4.0,4.0
754,755,Buen Bife,4.0,132.0,http://www.buenbife.com/,19.37547,-99.17791,"Pizzería, Churrasquería, Parrilla, Española, Argentina",4.0,4.0,3.5,4.0
755,756,Queseriademi,4.0,65.0,http://www.facebook.com/QueseriaDeMI,19.408333,-99.176025,"Café, Delicatessen",4.5,4.0,4.5,
756,757,Tacos Hola,4.5,42.0,http://www.facebook.com/tacos.hola68/,19.41164,-99.17153,"Mexicana, Comida rápida, Latina",4.5,4.5,5.0,
757,758,El Diez Alfonso Reyes,3.5,211.0,http://www.eldiez.com.mx/,19.410355,-99.17987,"Churrasquería, Latina, Argentina, Fusión",4.0,4.0,3.5,4.0
758,759,Petit Roquefort,5.0,20.0,http://www.petitroquefort.com,19.427774,-99.15939,"Delicatessen, Contemporánea, Saludable, Sopas",,,,
759,760,Brick Restaurant,4.5,26.0,https://www.facebook.com/Brick.Rest/,19.490322,-99.06767,Mexicana,4.5,5.0,4.5,
760,761,PEHÜA,4.0,88.0,http://www.facebook.com/restpehua,19.416462,-99.17064,Mexicana,4.5,4.5,4.5,
761,762,Havre 77,4.0,111.0,http://www.facebook.com/Havre-77-192447674455114/,19.425295,-99.16059,Francesa,4.5,3.5,3.5,
762,763,Terraza del Hotel Majestic,3.5,260.0,http://www.majestichotel.com.mx/restaurantes.html,19.432898,-99.134254,"Mexicana, Latina, Bar",3.0,3.5,3.5,4.0
763,764,Socarrat,5.0,16.0,http://www.socarratmx.com,19.391508,-99.160065,"Española, Mediterránea, Mariscos, Internacional, Europea, Bar de vinos",4.5,5.0,,
764,765,El Balcon del Centro,4.0,61.0,http://balcondelzocalo.com/en,19.433865,-99.13419,"Mexicana, Española",4.0,4.0,4.0,3.5
765,766,Wing's Army Condesa,5.0,19.0,http://www.wingsarmy.com/,19.370985,-99.07384,Estadounidense,5.0,5.0,5.0,
766,767,El Japonez,3.5,206.0,http://www.eljaponez.com.mx,19.360357,-99.279594,"Japonesa, Sushi, Asiática",4.0,4.0,3.5,4.0
767,768,Bar El Bosque,4.5,33.0,http://www.cantinaelbosque.com,19.418594,-99.178535,"Mexicana, Mariscos",4.5,4.5,4.5,
768,769,Moheli,4.0,114.0,http://moheli.mx,19.349274,-99.16449,"Mexicana, Fusión, Comida de calle",4.0,3.5,3.5,4.5
769,770,Le Relais de Venise,4.5,34.0,https://www.facebook.com/pages/Le-Relais-de-Venise-LEntrec%C3%B4te-M%C3%A9xico/1485697168309305,19.429974,-99.197556,Francesa,4.5,4.5,4.5,
770,771,Taqueria Tlaquepaque,4.5,39.0,http://www.facebook.com/TaqueriaTlaque,19.29646,-99.01518,Mexicana,4.5,4.5,4.5,
771,772,Masala y Maiz,4.0,52.0,http://Masalaymaiz.com,19.41296,-99.18362,"Mexicana, De la India",4.5,5.0,4.5,
772,773,PAPA GUAPA,4.0,98.0,http://WWW.PAPAGUAPA.COM,19.423258,-99.16097,Saludable,4.5,4.0,4.0,4.5
773,774,Don Carbon Claveria,5.0,14.0,http://m.facebook.com/doncarbonclaveria/#_=_,19.464014,-99.181854,"Mexicana, Estadounidense, Saludable, Sopas",,,,
774,775,Taqueria la Chinampa,4.0,111.0,http://lachinampa.com.mx/desk,19.429363,-99.16721,"Mexicana, Latina",4.0,4.0,4.0,
